[
    {
        "lng": "121.272595",
        "lat": "31.380155",
        "areaCode": "上海市上海市嘉定区",
        "name": "上海市上海市嘉定区",
        "parent_area": "上海市上海市",
        "value": 1068
    },
    {
        "lng": "121.480504",
        "lat": "30.92372",
        "areaCode": "上海市上海市奉贤区",
        "name": "上海市上海市奉贤区",
        "parent_area": "上海市上海市",
        "value": 366
    },
    {
        "lng": "121.496563",
        "lat": "31.410279",
        "areaCode": "上海市上海市宝山区",
        "name": "上海市上海市宝山区",
        "parent_area": "上海市上海市",
        "value": 1191
    },
    {
        "lng": "121.403557",
        "lat": "31.62857",
        "areaCode": "上海市上海市崇明县",
        "name": "上海市上海市崇明县",
        "parent_area": "上海市上海市",
        "value": 187
    },
    {
        "lng": "121.443396",
        "lat": "31.194557",
        "areaCode": "上海市上海市徐汇区",
        "name": "上海市上海市徐汇区",
        "parent_area": "上海市上海市",
        "value": 855
    },
    {
        "lng": "121.403569",
        "lat": "31.254973",
        "areaCode": "上海市上海市普陀区",
        "name": "上海市上海市普陀区",
        "parent_area": "上海市上海市",
        "value": 716
    },
    {
        "lng": "121.53252",
        "lat": "31.265524",
        "areaCode": "上海市上海市杨浦区",
        "name": "上海市上海市杨浦区",
        "parent_area": "上海市上海市",
        "value": 610
    },
    {
        "lng": "121.23448",
        "lat": "31.037135",
        "areaCode": "上海市上海市松江区",
        "name": "上海市上海市松江区",
        "parent_area": "上海市上海市",
        "value": 942
    },
    {
        "lng": "121.550455",
        "lat": "31.227348",
        "areaCode": "上海市上海市浦东新区",
        "name": "上海市上海市浦东新区",
        "parent_area": "上海市上海市",
        "value": 4150
    },
    {
        "lng": "121.511586",
        "lat": "31.269747",
        "areaCode": "上海市上海市虹口区",
        "name": "上海市上海市虹口区",
        "parent_area": "上海市上海市",
        "value": 439
    },
    {
        "lng": "121.34848",
        "lat": "30.747852",
        "areaCode": "上海市上海市金山区",
        "name": "上海市上海市金山区",
        "parent_area": "上海市上海市",
        "value": 214
    },
    {
        "lng": "121.430454",
        "lat": "31.226848",
        "areaCode": "上海市上海市长宁区",
        "name": "上海市上海市长宁区",
        "parent_area": "上海市上海市",
        "value": 503
    },
    {
        "lng": "121.388612",
        "lat": "31.118843",
        "areaCode": "上海市上海市闵行区",
        "name": "上海市上海市闵行区",
        "parent_area": "上海市上海市",
        "value": 2138
    },
    {
        "lng": "121.480539",
        "lat": "31.235929",
        "areaCode": "上海市上海市闸北区",
        "name": "上海市上海市闸北区",
        "parent_area": "上海市上海市",
        "value": 417
    },
    {
        "lng": "121.130553",
        "lat": "31.155454",
        "areaCode": "上海市上海市青浦区",
        "name": "上海市上海市青浦区",
        "parent_area": "上海市上海市",
        "value": 583
    },
    {
        "lng": "121.453432",
        "lat": "31.233845",
        "areaCode": "上海市上海市静安区",
        "name": "上海市上海市静安区",
        "parent_area": "上海市上海市",
        "value": 216
    },
    {
        "lng": "121.491586",
        "lat": "31.237247",
        "areaCode": "上海市上海市黄浦区",
        "name": "上海市上海市黄浦区",
        "parent_area": "上海市上海市",
        "value": 584
    },
    {
        "lng": "100.088443",
        "lat": "23.901402",
        "areaCode": "云南省临沧市临翔区",
        "name": "云南省临沧市临翔区",
        "parent_area": "云南省临沧市",
        "value": 59
    },
    {
        "lng": "100.129531",
        "lat": "24.442807",
        "areaCode": "云南省临沧市云县",
        "name": "云南省临沧市云县",
        "parent_area": "云南省临沧市",
        "value": 72
    },
    {
        "lng": "99.934989",
        "lat": "24.586472",
        "areaCode": "云南省临沧市凤庆县",
        "name": "云南省临沧市凤庆县",
        "parent_area": "云南省临沧市",
        "value": 88
    },
    {
        "lng": "99.265076",
        "lat": "24.024871",
        "areaCode": "云南省临沧市永德县",
        "name": "云南省临沧市永德县",
        "parent_area": "云南省临沧市",
        "value": 36
    },
    {
        "lng": "99.252722",
        "lat": "23.152879",
        "areaCode": "云南省临沧市沧源佤族自治县",
        "name": "云南省临沧市沧源佤族自治县",
        "parent_area": "云南省临沧市",
        "value": 25
    },
    {
        "lng": "99.403942",
        "lat": "23.543491",
        "areaCode": "云南省临沧市耿马傣族佤族自治县",
        "name": "云南省临沧市耿马傣族佤族自治县",
        "parent_area": "云南省临沧市",
        "value": 55
    },
    {
        "lng": "98.831871",
        "lat": "23.768315",
        "areaCode": "云南省临沧市镇康县",
        "name": "云南省临沧市镇康县",
        "parent_area": "云南省临沧市",
        "value": 21
    },
    {
        "lng": "101.27243",
        "lat": "26.635223",
        "areaCode": "云南省丽江市华坪县",
        "name": "云南省丽江市华坪县",
        "parent_area": "云南省丽江市",
        "value": 33
    },
    {
        "lng": "100.23248",
        "lat": "26.883162",
        "areaCode": "云南省丽江市古城区",
        "name": "云南省丽江市古城区",
        "parent_area": "云南省丽江市",
        "value": 612
    },
    {
        "lng": "100.85859",
        "lat": "27.287728",
        "areaCode": "云南省丽江市宁蒗彝族自治县",
        "name": "云南省丽江市宁蒗彝族自治县",
        "parent_area": "云南省丽江市",
        "value": 126
    },
    {
        "lng": "100.757581",
        "lat": "26.68995",
        "areaCode": "云南省丽江市永胜县",
        "name": "云南省丽江市永胜县",
        "parent_area": "云南省丽江市",
        "value": 74
    },
    {
        "lng": "100.243527",
        "lat": "26.827392",
        "areaCode": "云南省丽江市玉龙纳西族自治县",
        "name": "云南省丽江市玉龙纳西族自治县",
        "parent_area": "云南省丽江市",
        "value": 103
    },
    {
        "lng": "99.195469",
        "lat": "24.728835",
        "areaCode": "云南省保山市施甸县",
        "name": "云南省保山市施甸县",
        "parent_area": "云南省保山市",
        "value": 61
    },
    {
        "lng": "99.611617",
        "lat": "24.833985",
        "areaCode": "云南省保山市昌宁县",
        "name": "云南省保山市昌宁县",
        "parent_area": "云南省保山市",
        "value": 63
    },
    {
        "lng": "98.497595",
        "lat": "25.026617",
        "areaCode": "云南省保山市腾冲县",
        "name": "云南省保山市腾冲县",
        "parent_area": "云南省保山市",
        "value": 297
    },
    {
        "lng": "99.172071",
        "lat": "25.126888",
        "areaCode": "云南省保山市隆阳区",
        "name": "云南省保山市隆阳区",
        "parent_area": "云南省保山市",
        "value": 186
    },
    {
        "lng": "98.69575",
        "lat": "24.592547",
        "areaCode": "云南省保山市龙陵县",
        "name": "云南省保山市龙陵县",
        "parent_area": "云南省保山市",
        "value": 44
    },
    {
        "lng": "99.377416",
        "lat": "25.891945",
        "areaCode": "云南省大理白族自治州云龙县",
        "name": "云南省大理白族自治州云龙县",
        "parent_area": "云南省大理白族自治州",
        "value": 40
    },
    {
        "lng": "99.912091",
        "lat": "26.542517",
        "areaCode": "云南省大理白族自治州剑川县",
        "name": "云南省大理白族自治州剑川县",
        "parent_area": "云南省大理白族自治州",
        "value": 42
    },
    {
        "lng": "100.515549",
        "lat": "25.049427",
        "areaCode": "云南省大理白族自治州南涧彝族自治县",
        "name": "云南省大理白族自治州南涧彝族自治县",
        "parent_area": "云南省大理白族自治州",
        "value": 45
    },
    {
        "lng": "100.236519",
        "lat": "25.597605",
        "areaCode": "云南省大理白族自治州大理市",
        "name": "云南省大理白族自治州大理市",
        "parent_area": "云南省大理白族自治州",
        "value": 742
    },
    {
        "lng": "100.578457",
        "lat": "25.835249",
        "areaCode": "云南省大理白族自治州宾川县",
        "name": "云南省大理白族自治州宾川县",
        "parent_area": "云南省大理白族自治州",
        "value": 88
    },
    {
        "lng": "100.31346",
        "lat": "25.233439",
        "areaCode": "云南省大理白族自治州巍山彝族回族自治县",
        "name": "云南省大理白族自治州巍山彝族回族自治县",
        "parent_area": "云南省大理白族自治州",
        "value": 57
    },
    {
        "lng": "100.497586",
        "lat": "25.349336",
        "areaCode": "云南省大理白族自治州弥渡县",
        "name": "云南省大理白族自治州弥渡县",
        "parent_area": "云南省大理白族自治州",
        "value": 94
    },
    {
        "lng": "99.547495",
        "lat": "25.470206",
        "areaCode": "云南省大理白族自治州永平县",
        "name": "云南省大理白族自治州永平县",
        "parent_area": "云南省大理白族自治州",
        "value": 52
    },
    {
        "lng": "99.96921",
        "lat": "26.120093",
        "areaCode": "云南省大理白族自治州洱源县",
        "name": "云南省大理白族自治州洱源县",
        "parent_area": "云南省大理白族自治州",
        "value": 68
    },
    {
        "lng": "99.964414",
        "lat": "25.676296",
        "areaCode": "云南省大理白族自治州漾濞彝族自治县",
        "name": "云南省大理白族自治州漾濞彝族自治县",
        "parent_area": "云南省大理白族自治州",
        "value": 28
    },
    {
        "lng": "100.557447",
        "lat": "25.489873",
        "areaCode": "云南省大理白族自治州祥云县",
        "name": "云南省大理白族自治州祥云县",
        "parent_area": "云南省大理白族自治州",
        "value": 172
    },
    {
        "lng": "100.182492",
        "lat": "26.566197",
        "areaCode": "云南省大理白族自治州鹤庆县",
        "name": "云南省大理白族自治州鹤庆县",
        "parent_area": "云南省大理白族自治州",
        "value": 54
    },
    {
        "lng": "98.303134",
        "lat": "24.810784",
        "areaCode": "云南省德宏傣族景颇族自治州梁河县",
        "name": "云南省德宏傣族景颇族自治州梁河县",
        "parent_area": "云南省德宏傣族景颇族自治州",
        "value": 22
    },
    {
        "lng": "98.591359",
        "lat": "24.438011",
        "areaCode": "云南省德宏傣族景颇族自治州瑞丽市",
        "name": "云南省德宏傣族景颇族自治州瑞丽市",
        "parent_area": "云南省德宏傣族景颇族自治州",
        "value": 113
    },
    {
        "lng": "97.938427",
        "lat": "24.711534",
        "areaCode": "云南省德宏傣族景颇族自治州盈江县",
        "name": "云南省德宏傣族景颇族自治州盈江县",
        "parent_area": "云南省德宏傣族景颇族自治州",
        "value": 41
    },
    {
        "lng": "98.591359",
        "lat": "24.438011",
        "areaCode": "云南省德宏傣族景颇族自治州芒市",
        "name": "云南省德宏傣族景颇族自治州芒市",
        "parent_area": "云南省德宏傣族景颇族自治州",
        "value": 79
    },
    {
        "lng": "97.79853",
        "lat": "24.189468",
        "areaCode": "云南省德宏傣族景颇族自治州陇川县",
        "name": "云南省德宏傣族景颇族自治州陇川县",
        "parent_area": "云南省德宏傣族景颇族自治州",
        "value": 33
    },
    {
        "lng": "99.423285",
        "lat": "26.459208",
        "areaCode": "云南省怒江傈僳族自治州兰坪白族普米族自治县",
        "name": "云南省怒江傈僳族自治州兰坪白族普米族自治县",
        "parent_area": "云南省怒江傈僳族自治州",
        "value": 37
    },
    {
        "lng": "98.864586",
        "lat": "25.829027",
        "areaCode": "云南省怒江傈僳族自治州泸水县",
        "name": "云南省怒江傈僳族自治州泸水县",
        "parent_area": "云南省怒江傈僳族自治州",
        "value": 28
    },
    {
        "lng": "98.875649",
        "lat": "26.908055",
        "areaCode": "云南省怒江傈僳族自治州福贡县",
        "name": "云南省怒江傈僳族自治州福贡县",
        "parent_area": "云南省怒江傈僳族自治州",
        "value": 8
    },
    {
        "lng": "98.735546",
        "lat": "27.82295",
        "areaCode": "云南省怒江傈僳族自治州贡山独龙族怒族自治县",
        "name": "云南省怒江傈僳族自治州贡山独龙族怒族自治县",
        "parent_area": "云南省怒江傈僳族自治州",
        "value": 3
    },
    {
        "lng": "104.173442",
        "lat": "24.056994",
        "areaCode": "云南省文山壮族苗族自治州丘北县",
        "name": "云南省文山壮族苗族自治州丘北县",
        "parent_area": "云南省文山壮族苗族自治州",
        "value": 112
    },
    {
        "lng": "105.63749",
        "lat": "23.63138",
        "areaCode": "云南省文山壮族苗族自治州富宁县",
        "name": "云南省文山壮族苗族自治州富宁县",
        "parent_area": "云南省文山壮族苗族自治州",
        "value": 62
    },
    {
        "lng": "105.061582",
        "lat": "24.052199",
        "areaCode": "云南省文山壮族苗族自治州广南县",
        "name": "云南省文山壮族苗族自治州广南县",
        "parent_area": "云南省文山壮族苗族自治州",
        "value": 134
    },
    {
        "lng": "104.238544",
        "lat": "23.391944",
        "areaCode": "云南省文山壮族苗族自治州文山市",
        "name": "云南省文山壮族苗族自治州文山市",
        "parent_area": "云南省文山壮族苗族自治州",
        "value": 140
    },
    {
        "lng": "104.343551",
        "lat": "23.611487",
        "areaCode": "云南省文山壮族苗族自治州砚山县",
        "name": "云南省文山壮族苗族自治州砚山县",
        "parent_area": "云南省文山壮族苗族自治州",
        "value": 102
    },
    {
        "lng": "104.678525",
        "lat": "23.443271",
        "areaCode": "云南省文山壮族苗族自治州西畴县",
        "name": "云南省文山壮族苗族自治州西畴县",
        "parent_area": "云南省文山壮族苗族自治州",
        "value": 36
    },
    {
        "lng": "104.400415",
        "lat": "23.018994",
        "areaCode": "云南省文山壮族苗族自治州马关县",
        "name": "云南省文山壮族苗族自治州马关县",
        "parent_area": "云南省文山壮族苗族自治州",
        "value": 50
    },
    {
        "lng": "104.709549",
        "lat": "23.131586",
        "areaCode": "云南省文山壮族苗族自治州麻栗坡县",
        "name": "云南省文山壮族苗族自治州麻栗坡县",
        "parent_area": "云南省文山壮族苗族自治州",
        "value": 78
    },
    {
        "lng": "103.194452",
        "lat": "26.089054",
        "areaCode": "云南省昆明市东川区",
        "name": "云南省昆明市东川区",
        "parent_area": "云南省昆明市",
        "value": 52
    },
    {
        "lng": "102.713423",
        "lat": "25.049835",
        "areaCode": "云南省昆明市五华区",
        "name": "云南省昆明市五华区",
        "parent_area": "云南省昆明市",
        "value": 525
    },
    {
        "lng": "102.827473",
        "lat": "24.891871",
        "areaCode": "云南省昆明市呈贡区",
        "name": "云南省昆明市呈贡区",
        "parent_area": "云南省昆明市",
        "value": 435
    },
    {
        "lng": "102.484409",
        "lat": "24.925602",
        "areaCode": "云南省昆明市安宁市",
        "name": "云南省昆明市安宁市",
        "parent_area": "云南省昆明市",
        "value": 146
    },
    {
        "lng": "102.750482",
        "lat": "25.021196",
        "areaCode": "云南省昆明市官渡区",
        "name": "云南省昆明市官渡区",
        "parent_area": "云南省昆明市",
        "value": 1226
    },
    {
        "lng": "103.147558",
        "lat": "24.925287",
        "areaCode": "云南省昆明市宜良县",
        "name": "云南省昆明市宜良县",
        "parent_area": "云南省昆明市",
        "value": 98
    },
    {
        "lng": "102.504473",
        "lat": "25.228085",
        "areaCode": "云南省昆明市富民县",
        "name": "云南省昆明市富民县",
        "parent_area": "云南省昆明市",
        "value": 26
    },
    {
        "lng": "103.263574",
        "lat": "25.563894",
        "areaCode": "云南省昆明市寻甸回族彝族自治县",
        "name": "云南省昆明市寻甸回族彝族自治县",
        "parent_area": "云南省昆明市",
        "value": 87
    },
    {
        "lng": "103.043564",
        "lat": "25.344409",
        "areaCode": "云南省昆明市嵩明县",
        "name": "云南省昆明市嵩明县",
        "parent_area": "云南省昆明市",
        "value": 75
    },
    {
        "lng": "102.602418",
        "lat": "24.676099",
        "areaCode": "云南省昆明市晋宁县",
        "name": "云南省昆明市晋宁县",
        "parent_area": "云南省昆明市",
        "value": 73
    },
    {
        "lng": "102.758526",
        "lat": "25.122372",
        "areaCode": "云南省昆明市盘龙区",
        "name": "云南省昆明市盘龙区",
        "parent_area": "云南省昆明市",
        "value": 541
    },
    {
        "lng": "103.296508",
        "lat": "24.777702",
        "areaCode": "云南省昆明市石林彝族自治县",
        "name": "云南省昆明市石林彝族自治县",
        "parent_area": "云南省昆明市",
        "value": 72
    },
    {
        "lng": "102.477423",
        "lat": "25.557672",
        "areaCode": "云南省昆明市禄劝彝族苗族自治县",
        "name": "云南省昆明市禄劝彝族苗族自治县",
        "parent_area": "云南省昆明市",
        "value": 75
    },
    {
        "lng": "102.671557",
        "lat": "25.043199",
        "areaCode": "云南省昆明市西山区",
        "name": "云南省昆明市西山区",
        "parent_area": "云南省昆明市",
        "value": 543
    },
    {
        "lng": "103.897515",
        "lat": "27.754021",
        "areaCode": "云南省昭通市大关县",
        "name": "云南省昭通市大关县",
        "parent_area": "云南省昭通市",
        "value": 226
    },
    {
        "lng": "105.055577",
        "lat": "27.852537",
        "areaCode": "云南省昭通市威信县",
        "name": "云南省昭通市威信县",
        "parent_area": "云南省昭通市",
        "value": 228
    },
    {
        "lng": "102.936519",
        "lat": "26.914705",
        "areaCode": "云南省昭通市巧家县",
        "name": "云南省昭通市巧家县",
        "parent_area": "云南省昭通市",
        "value": 90
    },
    {
        "lng": "104.054443",
        "lat": "27.63169",
        "areaCode": "云南省昭通市彝良县",
        "name": "云南省昭通市彝良县",
        "parent_area": "云南省昭通市",
        "value": 268
    },
    {
        "lng": "103.71347",
        "lat": "27.326144",
        "areaCode": "云南省昭通市昭阳区",
        "name": "云南省昭通市昭阳区",
        "parent_area": "云南省昭通市",
        "value": 316
    },
    {
        "lng": "104.422433",
        "lat": "28.636107",
        "areaCode": "云南省昭通市水富县",
        "name": "云南省昭通市水富县",
        "parent_area": "云南省昭通市",
        "value": 122
    },
    {
        "lng": "103.644569",
        "lat": "28.234722",
        "areaCode": "云南省昭通市永善县",
        "name": "云南省昭通市永善县",
        "parent_area": "云南省昭通市",
        "value": 325
    },
    {
        "lng": "104.241579",
        "lat": "28.114384",
        "areaCode": "云南省昭通市盐津县",
        "name": "云南省昭通市盐津县",
        "parent_area": "云南省昭通市",
        "value": 500
    },
    {
        "lng": "103.964552",
        "lat": "28.604278",
        "areaCode": "云南省昭通市绥江县",
        "name": "云南省昭通市绥江县",
        "parent_area": "云南省昭通市",
        "value": 182
    },
    {
        "lng": "104.880404",
        "lat": "27.447795",
        "areaCode": "云南省昭通市镇雄县",
        "name": "云南省昭通市镇雄县",
        "parent_area": "云南省昭通市",
        "value": 522
    },
    {
        "lng": "103.564412",
        "lat": "27.193107",
        "areaCode": "云南省昭通市鲁甸县",
        "name": "云南省昭通市鲁甸县",
        "parent_area": "云南省昭通市",
        "value": 103
    },
    {
        "lng": "101.698584",
        "lat": "23.437726",
        "areaCode": "云南省普洱市墨江哈尼族自治县",
        "name": "云南省普洱市墨江哈尼族自治县",
        "parent_area": "云南省普洱市",
        "value": 47
    },
    {
        "lng": "101.052442",
        "lat": "23.05459",
        "areaCode": "云南省普洱市宁洱哈尼族彝族自治县",
        "name": "云南省普洱市宁洱哈尼族彝族自治县",
        "parent_area": "云南省普洱市",
        "value": 29
    },
    {
        "lng": "100.983555",
        "lat": "22.792498",
        "areaCode": "云南省普洱市思茅区",
        "name": "云南省普洱市思茅区",
        "parent_area": "云南省普洱市",
        "value": 85
    },
    {
        "lng": "100.838489",
        "lat": "24.451864",
        "areaCode": "云南省普洱市景东彝族自治县",
        "name": "云南省普洱市景东彝族自治县",
        "parent_area": "云南省普洱市",
        "value": 42
    },
    {
        "lng": "100.709457",
        "lat": "23.503204",
        "areaCode": "云南省普洱市景谷傣族彝族自治县",
        "name": "云南省普洱市景谷傣族彝族自治县",
        "parent_area": "云南省普洱市",
        "value": 34
    },
    {
        "lng": "101.868479",
        "lat": "22.591684",
        "areaCode": "云南省普洱市江城哈尼族彝族自治县",
        "name": "云南省普洱市江城哈尼族彝族自治县",
        "parent_area": "云南省普洱市",
        "value": 10
    },
    {
        "lng": "99.938588",
        "lat": "22.561832",
        "areaCode": "云南省普洱市澜沧拉祜族自治县",
        "name": "云南省普洱市澜沧拉祜族自治县",
        "parent_area": "云南省普洱市",
        "value": 57
    },
    {
        "lng": "99.596622",
        "lat": "22.650656",
        "areaCode": "云南省普洱市西盟佤族自治县",
        "name": "云南省普洱市西盟佤族自治县",
        "parent_area": "云南省普洱市",
        "value": 23
    },
    {
        "lng": "103.303487",
        "lat": "26.424215",
        "areaCode": "云南省曲靖市会泽县",
        "name": "云南省曲靖市会泽县",
        "parent_area": "云南省曲靖市",
        "value": 194
    },
    {
        "lng": "104.111576",
        "lat": "26.225598",
        "areaCode": "云南省曲靖市宣威市",
        "name": "云南省曲靖市宣威市",
        "parent_area": "云南省曲靖市",
        "value": 462
    },
    {
        "lng": "104.261474",
        "lat": "25.68028",
        "areaCode": "云南省曲靖市富源县",
        "name": "云南省曲靖市富源县",
        "parent_area": "云南省曲靖市",
        "value": 178
    },
    {
        "lng": "103.991556",
        "lat": "24.827995",
        "areaCode": "云南省曲靖市师宗县",
        "name": "云南省曲靖市师宗县",
        "parent_area": "云南省曲靖市",
        "value": 105
    },
    {
        "lng": "103.828485",
        "lat": "25.606631",
        "areaCode": "云南省曲靖市沾益县",
        "name": "云南省曲靖市沾益县",
        "parent_area": "云南省曲靖市",
        "value": 147
    },
    {
        "lng": "104.31551",
        "lat": "24.89052",
        "areaCode": "云南省曲靖市罗平县",
        "name": "云南省曲靖市罗平县",
        "parent_area": "云南省曲靖市",
        "value": 156
    },
    {
        "lng": "103.673432",
        "lat": "25.035639",
        "areaCode": "云南省曲靖市陆良县",
        "name": "云南省曲靖市陆良县",
        "parent_area": "云南省曲靖市",
        "value": 258
    },
    {
        "lng": "103.585447",
        "lat": "25.433966",
        "areaCode": "云南省曲靖市马龙县",
        "name": "云南省曲靖市马龙县",
        "parent_area": "云南省曲靖市",
        "value": 61
    },
    {
        "lng": "103.81143",
        "lat": "25.502102",
        "areaCode": "云南省曲靖市麒麟区",
        "name": "云南省曲靖市麒麟区",
        "parent_area": "云南省曲靖市",
        "value": 454
    },
    {
        "lng": "101.880445",
        "lat": "25.710895",
        "areaCode": "云南省楚雄彝族自治州元谋县",
        "name": "云南省楚雄彝族自治州元谋县",
        "parent_area": "云南省楚雄彝族自治州",
        "value": 62
    },
    {
        "lng": "101.280421",
        "lat": "25.198587",
        "areaCode": "云南省楚雄彝族自治州南华县",
        "name": "云南省楚雄彝族自治州南华县",
        "parent_area": "云南省楚雄彝族自治州",
        "value": 55
    },
    {
        "lng": "101.648407",
        "lat": "24.694899",
        "areaCode": "云南省楚雄彝族自治州双柏县",
        "name": "云南省楚雄彝族自治州双柏县",
        "parent_area": "云南省楚雄彝族自治州",
        "value": 34
    },
    {
        "lng": "101.330567",
        "lat": "25.727601",
        "areaCode": "云南省楚雄彝族自治州大姚县",
        "name": "云南省楚雄彝族自治州大姚县",
        "parent_area": "云南省楚雄彝族自治州",
        "value": 75
    },
    {
        "lng": "101.248527",
        "lat": "25.509775",
        "areaCode": "云南省楚雄彝族自治州姚安县",
        "name": "云南省楚雄彝族自治州姚安县",
        "parent_area": "云南省楚雄彝族自治州",
        "value": 45
    },
    {
        "lng": "101.552472",
        "lat": "25.03886",
        "areaCode": "云南省楚雄彝族自治州楚雄市",
        "name": "云南省楚雄彝族自治州楚雄市",
        "parent_area": "云南省楚雄彝族自治州",
        "value": 226
    },
    {
        "lng": "102.410532",
        "lat": "25.53609",
        "areaCode": "云南省楚雄彝族自治州武定县",
        "name": "云南省楚雄彝族自治州武定县",
        "parent_area": "云南省楚雄彝族自治州",
        "value": 46
    },
    {
        "lng": "101.672493",
        "lat": "26.055566",
        "areaCode": "云南省楚雄彝族自治州永仁县",
        "name": "云南省楚雄彝族自治州永仁县",
        "parent_area": "云南省楚雄彝族自治州",
        "value": 30
    },
    {
        "lng": "101.553481",
        "lat": "25.318846",
        "areaCode": "云南省楚雄彝族自治州牟定县",
        "name": "云南省楚雄彝族自治州牟定县",
        "parent_area": "云南省楚雄彝族自治州",
        "value": 33
    },
    {
        "lng": "102.085531",
        "lat": "25.155831",
        "areaCode": "云南省楚雄彝族自治州禄丰县",
        "name": "云南省楚雄彝族自治州禄丰县",
        "parent_area": "云南省楚雄彝族自治州",
        "value": 106
    },
    {
        "lng": "102.935492",
        "lat": "24.198581",
        "areaCode": "云南省玉溪市华宁县",
        "name": "云南省玉溪市华宁县",
        "parent_area": "云南省玉溪市",
        "value": 46
    },
    {
        "lng": "102.412565",
        "lat": "24.174774",
        "areaCode": "云南省玉溪市峨山彝族自治县",
        "name": "云南省玉溪市峨山彝族自治县",
        "parent_area": "云南省玉溪市",
        "value": 41
    },
    {
        "lng": "101.996428",
        "lat": "24.076263",
        "areaCode": "云南省玉溪市新平彝族傣族自治县",
        "name": "云南省玉溪市新平彝族傣族自治县",
        "parent_area": "云南省玉溪市",
        "value": 53
    },
    {
        "lng": "102.169535",
        "lat": "24.677404",
        "areaCode": "云南省玉溪市易门县",
        "name": "云南省玉溪市易门县",
        "parent_area": "云南省玉溪市",
        "value": 32
    },
    {
        "lng": "102.760527",
        "lat": "24.293439",
        "areaCode": "云南省玉溪市江川县",
        "name": "云南省玉溪市江川县",
        "parent_area": "云南省玉溪市",
        "value": 68
    },
    {
        "lng": "102.914555",
        "lat": "24.679415",
        "areaCode": "云南省玉溪市澄江县",
        "name": "云南省玉溪市澄江县",
        "parent_area": "云南省玉溪市",
        "value": 58
    },
    {
        "lng": "102.551565",
        "lat": "24.359801",
        "areaCode": "云南省玉溪市红塔区",
        "name": "云南省玉溪市红塔区",
        "parent_area": "云南省玉溪市",
        "value": 192
    },
    {
        "lng": "102.732423",
        "lat": "24.117891",
        "areaCode": "云南省玉溪市通海县",
        "name": "云南省玉溪市通海县",
        "parent_area": "云南省玉溪市",
        "value": 75
    },
    {
        "lng": "103.166519",
        "lat": "23.364942",
        "areaCode": "云南省红河哈尼族彝族自治州个旧市",
        "name": "云南省红河哈尼族彝族自治州个旧市",
        "parent_area": "云南省红河哈尼族彝族自治州",
        "value": 83
    },
    {
        "lng": "102.841433",
        "lat": "23.226198",
        "areaCode": "云南省红河哈尼族彝族自治州元阳县",
        "name": "云南省红河哈尼族彝族自治州元阳县",
        "parent_area": "云南省红河哈尼族彝族自治州",
        "value": 45
    },
    {
        "lng": "103.693432",
        "lat": "22.98999",
        "areaCode": "云南省红河哈尼族彝族自治州屏边苗族自治县",
        "name": "云南省红河哈尼族彝族自治州屏边苗族自治县",
        "parent_area": "云南省红河哈尼族彝族自治州",
        "value": 21
    },
    {
        "lng": "102.83344",
        "lat": "23.640939",
        "areaCode": "云南省红河哈尼族彝族自治州建水县",
        "name": "云南省红河哈尼族彝族自治州建水县",
        "parent_area": "云南省红河哈尼族彝族自治州",
        "value": 179
    },
    {
        "lng": "103.273553",
        "lat": "23.719908",
        "areaCode": "云南省红河哈尼族彝族自治州开远市",
        "name": "云南省红河哈尼族彝族自治州开远市",
        "parent_area": "云南省红河哈尼族彝族自治州",
        "value": 76
    },
    {
        "lng": "103.945444",
        "lat": "22.535466",
        "areaCode": "云南省红河哈尼族彝族自治州河口瑶族自治县",
        "name": "云南省红河哈尼族彝族自治州河口瑶族自治县",
        "parent_area": "云南省红河哈尼族彝族自治州",
        "value": 83
    },
    {
        "lng": "103.772523",
        "lat": "24.538037",
        "areaCode": "云南省红河哈尼族彝族自治州泸西县",
        "name": "云南省红河哈尼族彝族自治州泸西县",
        "parent_area": "云南省红河哈尼族彝族自治州",
        "value": 94
    },
    {
        "lng": "102.502447",
        "lat": "23.712004",
        "areaCode": "云南省红河哈尼族彝族自治州石屏县",
        "name": "云南省红河哈尼族彝族自治州石屏县",
        "parent_area": "云南省红河哈尼族彝族自治州",
        "value": 68
    },
    {
        "lng": "102.427551",
        "lat": "23.374489",
        "areaCode": "云南省红河哈尼族彝族自治州红河县",
        "name": "云南省红河哈尼族彝族自治州红河县",
        "parent_area": "云南省红河哈尼族彝族自治州",
        "value": 23
    },
    {
        "lng": "102.398494",
        "lat": "23.000165",
        "areaCode": "云南省红河哈尼族彝族自治州绿春县",
        "name": "云南省红河哈尼族彝族自治州绿春县",
        "parent_area": "云南省红河哈尼族彝族自治州",
        "value": 25
    },
    {
        "lng": "103.371546",
        "lat": "23.40208",
        "areaCode": "云南省红河哈尼族彝族自治州蒙自市",
        "name": "云南省红河哈尼族彝族自治州蒙自市",
        "parent_area": "云南省红河哈尼族彝族自治州",
        "value": 128
    },
    {
        "lng": "103.232469",
        "lat": "22.785561",
        "areaCode": "云南省红河哈尼族彝族自治州金平苗族瑶族傣族自治县",
        "name": "云南省红河哈尼族彝族自治州金平苗族瑶族傣族自治县",
        "parent_area": "云南省红河哈尼族彝族自治州",
        "value": 54
    },
    {
        "lng": "100.459446",
        "lat": "21.963434",
        "areaCode": "云南省西双版纳傣族自治州勐海县",
        "name": "云南省西双版纳傣族自治州勐海县",
        "parent_area": "云南省西双版纳傣族自治州",
        "value": 36
    },
    {
        "lng": "101.571528",
        "lat": "21.465281",
        "areaCode": "云南省西双版纳傣族自治州勐腊县",
        "name": "云南省西双版纳傣族自治州勐腊县",
        "parent_area": "云南省西双版纳傣族自治州",
        "value": 73
    },
    {
        "lng": "100.806443",
        "lat": "22.017004",
        "areaCode": "云南省西双版纳傣族自治州景洪市",
        "name": "云南省西双版纳傣族自治州景洪市",
        "parent_area": "云南省西双版纳傣族自治州",
        "value": 508
    },
    {
        "lng": "113.116601",
        "lat": "40.441805",
        "areaCode": "内蒙古自治区乌兰察布市丰镇市",
        "name": "内蒙古自治区乌兰察布市丰镇市",
        "parent_area": "内蒙古自治区乌兰察布市",
        "value": 62
    },
    {
        "lng": "113.840579",
        "lat": "40.879342",
        "areaCode": "内蒙古自治区乌兰察布市兴和县",
        "name": "内蒙古自治区乌兰察布市兴和县",
        "parent_area": "内蒙古自治区乌兰察布市",
        "value": 42
    },
    {
        "lng": "112.5106",
        "lat": "40.537163",
        "areaCode": "内蒙古自治区乌兰察布市凉城县",
        "name": "内蒙古自治区乌兰察布市凉城县",
        "parent_area": "内蒙古自治区乌兰察布市",
        "value": 33
    },
    {
        "lng": "114.016409",
        "lat": "41.909603",
        "areaCode": "内蒙古自治区乌兰察布市化德县",
        "name": "内蒙古自治区乌兰察布市化德县",
        "parent_area": "内蒙古自治区乌兰察布市",
        "value": 49
    },
    {
        "lng": "112.58441",
        "lat": "40.900292",
        "areaCode": "内蒙古自治区乌兰察布市卓资县",
        "name": "内蒙古自治区乌兰察布市卓资县",
        "parent_area": "内蒙古自治区乌兰察布市",
        "value": 22
    },
    {
        "lng": "113.584639",
        "lat": "41.567567",
        "areaCode": "内蒙古自治区乌兰察布市商都县",
        "name": "内蒙古自治区乌兰察布市商都县",
        "parent_area": "内蒙古自治区乌兰察布市",
        "value": 60
    },
    {
        "lng": "111.712419",
        "lat": "41.539353",
        "areaCode": "内蒙古自治区乌兰察布市四子王旗",
        "name": "内蒙古自治区乌兰察布市四子王旗",
        "parent_area": "内蒙古自治区乌兰察布市",
        "value": 31
    },
    {
        "lng": "112.64258",
        "lat": "41.283273",
        "areaCode": "内蒙古自治区乌兰察布市察哈尔右翼中旗",
        "name": "内蒙古自治区乌兰察布市察哈尔右翼中旗",
        "parent_area": "内蒙古自治区乌兰察布市",
        "value": 30
    },
    {
        "lng": "113.221605",
        "lat": "40.791267",
        "areaCode": "内蒙古自治区乌兰察布市察哈尔右翼前旗",
        "name": "内蒙古自治区乌兰察布市察哈尔右翼前旗",
        "parent_area": "内蒙古自治区乌兰察布市",
        "value": 44
    },
    {
        "lng": "113.198531",
        "lat": "41.441771",
        "areaCode": "内蒙古自治区乌兰察布市察哈尔右翼后旗",
        "name": "内蒙古自治区乌兰察布市察哈尔右翼后旗",
        "parent_area": "内蒙古自治区乌兰察布市",
        "value": 33
    },
    {
        "lng": "113.120587",
        "lat": "41.041146",
        "areaCode": "内蒙古自治区乌兰察布市集宁区",
        "name": "内蒙古自治区乌兰察布市集宁区",
        "parent_area": "内蒙古自治区乌兰察布市",
        "value": 156
    },
    {
        "lng": "106.732606",
        "lat": "39.511469",
        "areaCode": "内蒙古自治区乌海市乌达区",
        "name": "内蒙古自治区乌海市乌达区",
        "parent_area": "内蒙古自治区乌海市",
        "value": 39
    },
    {
        "lng": "106.829439",
        "lat": "39.696908",
        "areaCode": "内蒙古自治区乌海市海勃湾区",
        "name": "内蒙古自治区乌海市海勃湾区",
        "parent_area": "内蒙古自治区乌海市",
        "value": 81
    },
    {
        "lng": "106.898471",
        "lat": "39.446828",
        "areaCode": "内蒙古自治区乌海市海南区",
        "name": "内蒙古自治区乌海市海南区",
        "parent_area": "内蒙古自治区乌海市",
        "value": 29
    },
    {
        "lng": "110.050395",
        "lat": "40.582228",
        "areaCode": "内蒙古自治区包头市东河区",
        "name": "内蒙古自治区包头市东河区",
        "parent_area": "内蒙古自治区包头市",
        "value": 175
    },
    {
        "lng": "109.969588",
        "lat": "40.613397",
        "areaCode": "内蒙古自治区包头市九原区",
        "name": "内蒙古自治区包头市九原区",
        "parent_area": "内蒙古自治区包头市",
        "value": 70
    },
    {
        "lng": "110.066433",
        "lat": "41.040163",
        "areaCode": "内蒙古自治区包头市固阳县",
        "name": "内蒙古自治区包头市固阳县",
        "parent_area": "内蒙古自治区包头市",
        "value": 12
    },
    {
        "lng": "110.530389",
        "lat": "40.575127",
        "areaCode": "内蒙古自治区包头市土默特右旗",
        "name": "内蒙古自治区包头市土默特右旗",
        "parent_area": "内蒙古自治区包头市",
        "value": 52
    },
    {
        "lng": "109.845538",
        "lat": "40.647644",
        "areaCode": "内蒙古自治区包头市昆都仑区",
        "name": "内蒙古自治区包头市昆都仑区",
        "parent_area": "内蒙古自治区包头市",
        "value": 311
    },
    {
        "lng": "109.979626",
        "lat": "41.774995",
        "areaCode": "内蒙古自治区包头市白云鄂博矿区",
        "name": "内蒙古自治区包头市白云鄂博矿区",
        "parent_area": "内蒙古自治区包头市",
        "value": 5
    },
    {
        "lng": "110.278381",
        "lat": "40.678299",
        "areaCode": "内蒙古自治区包头市石拐区",
        "name": "内蒙古自治区包头市石拐区",
        "parent_area": "内蒙古自治区包头市",
        "value": 6
    },
    {
        "lng": "110.439521",
        "lat": "41.704549",
        "areaCode": "内蒙古自治区包头市达尔罕茂明安联合旗",
        "name": "内蒙古自治区包头市达尔罕茂明安联合旗",
        "parent_area": "内蒙古自治区包头市",
        "value": 17
    },
    {
        "lng": "109.907416",
        "lat": "40.649473",
        "areaCode": "内蒙古自治区包头市青山区",
        "name": "内蒙古自治区包头市青山区",
        "parent_area": "内蒙古自治区包头市",
        "value": 346
    },
    {
        "lng": "122.744454",
        "lat": "48.019956",
        "areaCode": "内蒙古自治区呼伦贝尔市扎兰屯市",
        "name": "内蒙古自治区呼伦贝尔市扎兰屯市",
        "parent_area": "内蒙古自治区呼伦贝尔市",
        "value": 109
    },
    {
        "lng": "116.830632",
        "lat": "48.677054",
        "areaCode": "内蒙古自治区呼伦贝尔市新巴尔虎右旗",
        "name": "内蒙古自治区呼伦贝尔市新巴尔虎右旗",
        "parent_area": "内蒙古自治区呼伦贝尔市",
        "value": 6
    },
    {
        "lng": "118.276608",
        "lat": "48.223787",
        "areaCode": "内蒙古自治区呼伦贝尔市新巴尔虎左旗",
        "name": "内蒙古自治区呼伦贝尔市新巴尔虎左旗",
        "parent_area": "内蒙古自治区呼伦贝尔市",
        "value": 7
    },
    {
        "lng": "121.527585",
        "lat": "50.78614",
        "areaCode": "内蒙古自治区呼伦贝尔市根河市",
        "name": "内蒙古自治区呼伦贝尔市根河市",
        "parent_area": "内蒙古自治区呼伦贝尔市",
        "value": 42
    },
    {
        "lng": "119.742465",
        "lat": "49.218216",
        "areaCode": "内蒙古自治区呼伦贝尔市海拉尔区",
        "name": "内蒙古自治区呼伦贝尔市海拉尔区",
        "parent_area": "内蒙古自治区呼伦贝尔市",
        "value": 119
    },
    {
        "lng": "117.385436",
        "lat": "49.604099",
        "areaCode": "内蒙古自治区呼伦贝尔市满洲里市",
        "name": "内蒙古自治区呼伦贝尔市满洲里市",
        "parent_area": "内蒙古自治区呼伦贝尔市",
        "value": 34
    },
    {
        "lng": "120.718347",
        "lat": "49.292024",
        "areaCode": "内蒙古自治区呼伦贝尔市牙克石市",
        "name": "内蒙古自治区呼伦贝尔市牙克石市",
        "parent_area": "内蒙古自治区呼伦贝尔市",
        "value": 88
    },
    {
        "lng": "124.525477",
        "lat": "48.483464",
        "areaCode": "内蒙古自治区呼伦贝尔市莫力达瓦达斡尔族自治旗",
        "name": "内蒙古自治区呼伦贝尔市莫力达瓦达斡尔族自治旗",
        "parent_area": "内蒙古自治区呼伦贝尔市",
        "value": 60
    },
    {
        "lng": "123.732345",
        "lat": "50.597948",
        "areaCode": "内蒙古自治区呼伦贝尔市鄂伦春自治旗",
        "name": "内蒙古自治区呼伦贝尔市鄂伦春自治旗",
        "parent_area": "内蒙古自治区呼伦贝尔市",
        "value": 70
    },
    {
        "lng": "119.761351",
        "lat": "49.153045",
        "areaCode": "内蒙古自治区呼伦贝尔市鄂温克族自治旗",
        "name": "内蒙古自治区呼伦贝尔市鄂温克族自治旗",
        "parent_area": "内蒙古自治区呼伦贝尔市",
        "value": 43
    },
    {
        "lng": "123.46544",
        "lat": "48.131971",
        "areaCode": "内蒙古自治区呼伦贝尔市阿荣旗",
        "name": "内蒙古自治区呼伦贝尔市阿荣旗",
        "parent_area": "内蒙古自治区呼伦贝尔市",
        "value": 81
    },
    {
        "lng": "119.430462",
        "lat": "49.334914",
        "areaCode": "内蒙古自治区呼伦贝尔市陈巴尔虎旗",
        "name": "内蒙古自治区呼伦贝尔市陈巴尔虎旗",
        "parent_area": "内蒙古自治区呼伦贝尔市",
        "value": 12
    },
    {
        "lng": "120.186634",
        "lat": "50.248132",
        "areaCode": "内蒙古自治区呼伦贝尔市额尔古纳市",
        "name": "内蒙古自治区呼伦贝尔市额尔古纳市",
        "parent_area": "内蒙古自治区呼伦贝尔市",
        "value": 23
    },
    {
        "lng": "111.82843",
        "lat": "40.384798",
        "areaCode": "内蒙古自治区呼和浩特市和林格尔县",
        "name": "内蒙古自治区呼和浩特市和林格尔县",
        "parent_area": "内蒙古自治区呼和浩特市",
        "value": 47
    },
    {
        "lng": "111.63047",
        "lat": "40.814506",
        "areaCode": "内蒙古自治区呼和浩特市回民区",
        "name": "内蒙古自治区呼和浩特市回民区",
        "parent_area": "内蒙古自治区呼和浩特市",
        "value": 136
    },
    {
        "lng": "111.169587",
        "lat": "40.735294",
        "areaCode": "内蒙古自治区呼和浩特市土默特左旗",
        "name": "内蒙古自治区呼和浩特市土默特左旗",
        "parent_area": "内蒙古自治区呼和浩特市",
        "value": 131
    },
    {
        "lng": "111.200575",
        "lat": "40.283147",
        "areaCode": "内蒙古自治区呼和浩特市托克托县",
        "name": "内蒙古自治区呼和浩特市托克托县",
        "parent_area": "内蒙古自治区呼和浩特市",
        "value": 48
    },
    {
        "lng": "111.67162",
        "lat": "40.863877",
        "areaCode": "内蒙古自治区呼和浩特市新城区",
        "name": "内蒙古自治区呼和浩特市新城区",
        "parent_area": "内蒙古自治区呼和浩特市",
        "value": 274
    },
    {
        "lng": "111.457497",
        "lat": "41.102419",
        "areaCode": "内蒙古自治区呼和浩特市武川县",
        "name": "内蒙古自治区呼和浩特市武川县",
        "parent_area": "内蒙古自治区呼和浩特市",
        "value": 42
    },
    {
        "lng": "111.653576",
        "lat": "39.926334",
        "areaCode": "内蒙古自治区呼和浩特市清水河县",
        "name": "内蒙古自治区呼和浩特市清水河县",
        "parent_area": "内蒙古自治区呼和浩特市",
        "value": 14
    },
    {
        "lng": "111.681575",
        "lat": "40.758059",
        "areaCode": "内蒙古自治区呼和浩特市玉泉区",
        "name": "内蒙古自治区呼和浩特市玉泉区",
        "parent_area": "内蒙古自治区呼和浩特市",
        "value": 168
    },
    {
        "lng": "111.708421",
        "lat": "40.798394",
        "areaCode": "内蒙古自治区呼和浩特市赛罕区",
        "name": "内蒙古自治区呼和浩特市赛罕区",
        "parent_area": "内蒙古自治区呼和浩特市",
        "value": 417
    },
    {
        "lng": "107.369534",
        "lat": "40.756681",
        "areaCode": "内蒙古自治区巴彦淖尔市临河区",
        "name": "内蒙古自治区巴彦淖尔市临河区",
        "parent_area": "内蒙古自治区巴彦淖尔市",
        "value": 173
    },
    {
        "lng": "108.519512",
        "lat": "41.593346",
        "areaCode": "内蒙古自治区巴彦淖尔市乌拉特中旗",
        "name": "内蒙古自治区巴彦淖尔市乌拉特中旗",
        "parent_area": "内蒙古自治区巴彦淖尔市",
        "value": 30
    },
    {
        "lng": "108.658615",
        "lat": "40.742104",
        "areaCode": "内蒙古自治区巴彦淖尔市乌拉特前旗",
        "name": "内蒙古自治区巴彦淖尔市乌拉特前旗",
        "parent_area": "内蒙古自治区巴彦淖尔市",
        "value": 61
    },
    {
        "lng": "107.081546",
        "lat": "41.089422",
        "areaCode": "内蒙古自治区巴彦淖尔市乌拉特后旗",
        "name": "内蒙古自治区巴彦淖尔市乌拉特后旗",
        "parent_area": "内蒙古自治区巴彦淖尔市",
        "value": 12
    },
    {
        "lng": "108.273491",
        "lat": "41.094455",
        "areaCode": "内蒙古自治区巴彦淖尔市五原县",
        "name": "内蒙古自治区巴彦淖尔市五原县",
        "parent_area": "内蒙古自治区巴彦淖尔市",
        "value": 69
    },
    {
        "lng": "107.157372",
        "lat": "40.892179",
        "areaCode": "内蒙古自治区巴彦淖尔市杭锦后旗",
        "name": "内蒙古自治区巴彦淖尔市杭锦后旗",
        "parent_area": "内蒙古自治区巴彦淖尔市",
        "value": 50
    },
    {
        "lng": "107.014522",
        "lat": "40.33647",
        "areaCode": "内蒙古自治区巴彦淖尔市磴口县",
        "name": "内蒙古自治区巴彦淖尔市磴口县",
        "parent_area": "内蒙古自治区巴彦淖尔市",
        "value": 29
    },
    {
        "lng": "119.295405",
        "lat": "42.045125",
        "areaCode": "内蒙古自治区赤峰市元宝山区",
        "name": "内蒙古自治区赤峰市元宝山区",
        "parent_area": "内蒙古自治区赤峰市",
        "value": 246
    },
    {
        "lng": "117.55162",
        "lat": "43.270758",
        "areaCode": "内蒙古自治区赤峰市克什克腾旗",
        "name": "内蒙古自治区赤峰市克什克腾旗",
        "parent_area": "内蒙古自治区赤峰市",
        "value": 63
    },
    {
        "lng": "118.710474",
        "lat": "41.932214",
        "areaCode": "内蒙古自治区赤峰市喀喇沁旗",
        "name": "内蒙古自治区赤峰市喀喇沁旗",
        "parent_area": "内蒙古自治区赤峰市",
        "value": 180
    },
    {
        "lng": "119.350609",
        "lat": "41.600245",
        "areaCode": "内蒙古自治区赤峰市宁城县",
        "name": "内蒙古自治区赤峰市宁城县",
        "parent_area": "内蒙古自治区赤峰市",
        "value": 284
    },
    {
        "lng": "118.670394",
        "lat": "43.540132",
        "areaCode": "内蒙古自治区赤峰市巴林右旗",
        "name": "内蒙古自治区赤峰市巴林右旗",
        "parent_area": "内蒙古自治区赤峰市",
        "value": 45
    },
    {
        "lng": "119.386443",
        "lat": "43.976383",
        "areaCode": "内蒙古自治区赤峰市巴林左旗",
        "name": "内蒙古自治区赤峰市巴林左旗",
        "parent_area": "内蒙古自治区赤峰市",
        "value": 157
    },
    {
        "lng": "119.927578",
        "lat": "42.296507",
        "areaCode": "内蒙古自治区赤峰市敖汉旗",
        "name": "内蒙古自治区赤峰市敖汉旗",
        "parent_area": "内蒙古自治区赤峰市",
        "value": 213
    },
    {
        "lng": "118.939414",
        "lat": "42.292482",
        "areaCode": "内蒙古自治区赤峰市松山区",
        "name": "内蒙古自治区赤峰市松山区",
        "parent_area": "内蒙古自治区赤峰市",
        "value": 348
    },
    {
        "lng": "118.062461",
        "lat": "43.62421",
        "areaCode": "内蒙古自治区赤峰市林西县",
        "name": "内蒙古自治区赤峰市林西县",
        "parent_area": "内蒙古自治区赤峰市",
        "value": 81
    },
    {
        "lng": "118.963564",
        "lat": "42.270478",
        "areaCode": "内蒙古自治区赤峰市红山区",
        "name": "内蒙古自治区赤峰市红山区",
        "parent_area": "内蒙古自治区赤峰市",
        "value": 226
    },
    {
        "lng": "119.012509",
        "lat": "42.942019",
        "areaCode": "内蒙古自治区赤峰市翁牛特旗",
        "name": "内蒙古自治区赤峰市翁牛特旗",
        "parent_area": "内蒙古自治区赤峰市",
        "value": 160
    },
    {
        "lng": "120.072614",
        "lat": "43.877953",
        "areaCode": "内蒙古自治区赤峰市阿鲁科尔沁旗",
        "name": "内蒙古自治区赤峰市阿鲁科尔沁旗",
        "parent_area": "内蒙古自治区赤峰市",
        "value": 126
    },
    {
        "lng": "120.664646",
        "lat": "42.871847",
        "areaCode": "内蒙古自治区通辽市奈曼旗",
        "name": "内蒙古自治区通辽市奈曼旗",
        "parent_area": "内蒙古自治区通辽市",
        "value": 121
    },
    {
        "lng": "121.817406",
        "lat": "42.741211",
        "areaCode": "内蒙古自治区通辽市库伦旗",
        "name": "内蒙古自治区通辽市库伦旗",
        "parent_area": "内蒙古自治区通辽市",
        "value": 45
    },
    {
        "lng": "121.325386",
        "lat": "43.606369",
        "areaCode": "内蒙古自治区通辽市开鲁县",
        "name": "内蒙古自治区通辽市开鲁县",
        "parent_area": "内蒙古自治区通辽市",
        "value": 126
    },
    {
        "lng": "120.918626",
        "lat": "44.562213",
        "areaCode": "内蒙古自治区通辽市扎鲁特旗",
        "name": "内蒙古自治区通辽市扎鲁特旗",
        "parent_area": "内蒙古自治区通辽市",
        "value": 80
    },
    {
        "lng": "122.262457",
        "lat": "43.628712",
        "areaCode": "内蒙古自治区通辽市科尔沁区",
        "name": "内蒙古自治区通辽市科尔沁区",
        "parent_area": "内蒙古自治区通辽市",
        "value": 330
    },
    {
        "lng": "122.262457",
        "lat": "43.628712",
        "areaCode": "内蒙古自治区通辽市科尔沁左翼中旗",
        "name": "内蒙古自治区通辽市科尔沁左翼中旗",
        "parent_area": "内蒙古自治区通辽市",
        "value": 119
    },
    {
        "lng": "122.262457",
        "lat": "43.628712",
        "areaCode": "内蒙古自治区通辽市科尔沁左翼后旗",
        "name": "内蒙古自治区通辽市科尔沁左翼后旗",
        "parent_area": "内蒙古自治区通辽市",
        "value": 96
    },
    {
        "lng": "119.670466",
        "lat": "45.537513",
        "areaCode": "内蒙古自治区通辽市霍林郭勒市",
        "name": "内蒙古自治区通辽市霍林郭勒市",
        "parent_area": "内蒙古自治区通辽市",
        "value": 75
    },
    {
        "lng": "109.96956",
        "lat": "39.827987",
        "areaCode": "内蒙古自治区鄂尔多斯市东胜区",
        "name": "内蒙古自治区鄂尔多斯市东胜区",
        "parent_area": "内蒙古自治区鄂尔多斯市",
        "value": 160
    },
    {
        "lng": "108.824435",
        "lat": "38.610027",
        "areaCode": "内蒙古自治区鄂尔多斯市乌审旗",
        "name": "内蒙古自治区鄂尔多斯市乌审旗",
        "parent_area": "内蒙古自治区鄂尔多斯市",
        "value": 25
    },
    {
        "lng": "109.75459",
        "lat": "39.570093",
        "areaCode": "内蒙古自治区鄂尔多斯市伊金霍洛旗",
        "name": "内蒙古自治区鄂尔多斯市伊金霍洛旗",
        "parent_area": "内蒙古自治区鄂尔多斯市",
        "value": 59
    },
    {
        "lng": "111.246398",
        "lat": "39.87054",
        "areaCode": "内蒙古自治区鄂尔多斯市准格尔旗",
        "name": "内蒙古自治区鄂尔多斯市准格尔旗",
        "parent_area": "内蒙古自治区鄂尔多斯市",
        "value": 88
    },
    {
        "lng": "108.742413",
        "lat": "39.838816",
        "areaCode": "内蒙古自治区鄂尔多斯市杭锦旗",
        "name": "内蒙古自治区鄂尔多斯市杭锦旗",
        "parent_area": "内蒙古自治区鄂尔多斯市",
        "value": 35
    },
    {
        "lng": "110.040366",
        "lat": "40.418907",
        "areaCode": "内蒙古自治区鄂尔多斯市达拉特旗",
        "name": "内蒙古自治区鄂尔多斯市达拉特旗",
        "parent_area": "内蒙古自治区鄂尔多斯市",
        "value": 113
    },
    {
        "lng": "107.484585",
        "lat": "38.188217",
        "areaCode": "内蒙古自治区鄂尔多斯市鄂托克前旗",
        "name": "内蒙古自治区鄂尔多斯市鄂托克前旗",
        "parent_area": "内蒙古自治区鄂尔多斯市",
        "value": 21
    },
    {
        "lng": "107.982445",
        "lat": "39.095293",
        "areaCode": "内蒙古自治区鄂尔多斯市鄂托克旗",
        "name": "内蒙古自治区鄂尔多斯市鄂托克旗",
        "parent_area": "内蒙古自治区鄂尔多斯市",
        "value": 41
    },
    {
        "lng": "101.673464",
        "lat": "39.222241",
        "areaCode": "内蒙古自治区阿拉善盟阿拉善右旗",
        "name": "内蒙古自治区阿拉善盟阿拉善右旗",
        "parent_area": "内蒙古自治区阿拉善盟",
        "value": 22
    },
    {
        "lng": "105.672599",
        "lat": "38.839094",
        "areaCode": "内蒙古自治区阿拉善盟阿拉善左旗",
        "name": "内蒙古自治区阿拉善盟阿拉善左旗",
        "parent_area": "内蒙古自治区阿拉善盟",
        "value": 113
    },
    {
        "lng": "101.062403",
        "lat": "41.960298",
        "areaCode": "内蒙古自治区阿拉善盟额济纳旗",
        "name": "内蒙古自治区阿拉善盟额济纳旗",
        "parent_area": "内蒙古自治区阿拉善盟",
        "value": 12
    },
    {
        "lng": "116.422401",
        "lat": "39.934827",
        "areaCode": "北京市北京市东城区",
        "name": "北京市北京市东城区",
        "parent_area": "北京市北京市",
        "value": 1615
    },
    {
        "lng": "116.292402",
        "lat": "39.864937",
        "areaCode": "北京市北京市丰台区",
        "name": "北京市北京市丰台区",
        "parent_area": "北京市北京市",
        "value": 2548
    },
    {
        "lng": "116.348625",
        "lat": "39.732555",
        "areaCode": "北京市北京市大兴区",
        "name": "北京市北京市大兴区",
        "parent_area": "北京市北京市",
        "value": 1229
    },
    {
        "lng": "116.849547",
        "lat": "40.382176",
        "areaCode": "北京市北京市密云县",
        "name": "北京市北京市密云县",
        "parent_area": "北京市北京市",
        "value": 144
    },
    {
        "lng": "117.127379",
        "lat": "40.146951",
        "areaCode": "北京市北京市平谷区",
        "name": "北京市北京市平谷区",
        "parent_area": "北京市北京市",
        "value": 124
    },
    {
        "lng": "115.981632",
        "lat": "40.462169",
        "areaCode": "北京市北京市延庆县",
        "name": "北京市北京市延庆县",
        "parent_area": "北京市北京市",
        "value": 145
    },
    {
        "lng": "116.638386",
        "lat": "40.322618",
        "areaCode": "北京市北京市怀柔区",
        "name": "北京市北京市怀柔区",
        "parent_area": "北京市北京市",
        "value": 167
    },
    {
        "lng": "116.237618",
        "lat": "40.226413",
        "areaCode": "北京市北京市昌平区",
        "name": "北京市北京市昌平区",
        "parent_area": "北京市北京市",
        "value": 1564
    },
    {
        "lng": "116.149444",
        "lat": "39.754326",
        "areaCode": "北京市北京市房山区",
        "name": "北京市北京市房山区",
        "parent_area": "北京市北京市",
        "value": 673
    },
    {
        "lng": "116.449559",
        "lat": "39.926375",
        "areaCode": "北京市北京市朝阳区",
        "name": "北京市北京市朝阳区",
        "parent_area": "北京市北京市",
        "value": 4233
    },
    {
        "lng": "116.305434",
        "lat": "39.96549",
        "areaCode": "北京市北京市海淀区",
        "name": "北京市北京市海淀区",
        "parent_area": "北京市北京市",
        "value": 3426
    },
    {
        "lng": "116.229613",
        "lat": "39.911354",
        "areaCode": "北京市北京市石景山区",
        "name": "北京市北京市石景山区",
        "parent_area": "北京市北京市",
        "value": 481
    },
    {
        "lng": "116.372514",
        "lat": "39.918124",
        "areaCode": "北京市北京市西城区",
        "name": "北京市北京市西城区",
        "parent_area": "北京市北京市",
        "value": 1379
    },
    {
        "lng": "116.663415",
        "lat": "39.916017",
        "areaCode": "北京市北京市通州区",
        "name": "北京市北京市通州区",
        "parent_area": "北京市北京市",
        "value": 989
    },
    {
        "lng": "116.107604",
        "lat": "39.946147",
        "areaCode": "北京市北京市门头沟区",
        "name": "北京市北京市门头沟区",
        "parent_area": "北京市北京市",
        "value": 177
    },
    {
        "lng": "116.661424",
        "lat": "40.136351",
        "areaCode": "北京市北京市顺义区",
        "name": "北京市北京市顺义区",
        "parent_area": "北京市北京市",
        "value": 1042
    },
    {
        "lng": "126.56857",
        "lat": "43.827152",
        "areaCode": "吉林省吉林市丰满区",
        "name": "吉林省吉林市丰满区",
        "parent_area": "吉林省吉林市",
        "value": 188
    },
    {
        "lng": "126.581449",
        "lat": "43.887992",
        "areaCode": "吉林省吉林市昌邑区",
        "name": "吉林省吉林市昌邑区",
        "parent_area": "吉林省吉林市",
        "value": 238
    },
    {
        "lng": "126.752484",
        "lat": "42.977983",
        "areaCode": "吉林省吉林市桦甸市",
        "name": "吉林省吉林市桦甸市",
        "parent_area": "吉林省吉林市",
        "value": 115
    },
    {
        "lng": "126.504416",
        "lat": "43.678721",
        "areaCode": "吉林省吉林市永吉县",
        "name": "吉林省吉林市永吉县",
        "parent_area": "吉林省吉林市",
        "value": 96
    },
    {
        "lng": "126.066616",
        "lat": "42.951818",
        "areaCode": "吉林省吉林市磐石市",
        "name": "吉林省吉林市磐石市",
        "parent_area": "吉林省吉林市",
        "value": 140
    },
    {
        "lng": "126.971377",
        "lat": "44.41227",
        "areaCode": "吉林省吉林市舒兰市",
        "name": "吉林省吉林市舒兰市",
        "parent_area": "吉林省吉林市",
        "value": 247
    },
    {
        "lng": "126.54765",
        "lat": "43.839927",
        "areaCode": "吉林省吉林市船营区",
        "name": "吉林省吉林市船营区",
        "parent_area": "吉林省吉林市",
        "value": 219
    },
    {
        "lng": "126.568545",
        "lat": "43.916343",
        "areaCode": "吉林省吉林市龙潭区",
        "name": "吉林省吉林市龙潭区",
        "parent_area": "吉林省吉林市",
        "value": 147
    },
    {
        "lng": "127.35148",
        "lat": "43.730004",
        "areaCode": "吉林省吉林市蛟河市",
        "name": "吉林省吉林市蛟河市",
        "parent_area": "吉林省吉林市",
        "value": 107
    },
    {
        "lng": "125.311485",
        "lat": "43.351104",
        "areaCode": "吉林省四平市伊通满族自治县",
        "name": "吉林省四平市伊通满族自治县",
        "parent_area": "吉林省四平市",
        "value": 176
    },
    {
        "lng": "124.829449",
        "lat": "43.510833",
        "areaCode": "吉林省四平市公主岭市",
        "name": "吉林省四平市公主岭市",
        "parent_area": "吉林省四平市",
        "value": 424
    },
    {
        "lng": "123.509438",
        "lat": "43.524527",
        "areaCode": "吉林省四平市双辽市",
        "name": "吉林省四平市双辽市",
        "parent_area": "吉林省四平市",
        "value": 117
    },
    {
        "lng": "124.342401",
        "lat": "43.313346",
        "areaCode": "吉林省四平市梨树县",
        "name": "吉林省四平市梨树县",
        "parent_area": "吉林省四平市",
        "value": 252
    },
    {
        "lng": "124.416483",
        "lat": "43.167994",
        "areaCode": "吉林省四平市铁东区",
        "name": "吉林省四平市铁东区",
        "parent_area": "吉林省四平市",
        "value": 154
    },
    {
        "lng": "124.352467",
        "lat": "43.152575",
        "areaCode": "吉林省四平市铁西区",
        "name": "吉林省四平市铁西区",
        "parent_area": "吉林省四平市",
        "value": 112
    },
    {
        "lng": "129.017387",
        "lat": "42.552323",
        "areaCode": "吉林省延边朝鲜族自治州和龙市",
        "name": "吉林省延边朝鲜族自治州和龙市",
        "parent_area": "吉林省延边朝鲜族自治州",
        "value": 39
    },
    {
        "lng": "129.850382",
        "lat": "42.974283",
        "areaCode": "吉林省延边朝鲜族自治州图们市",
        "name": "吉林省延边朝鲜族自治州图们市",
        "parent_area": "吉林省延边朝鲜族自治州",
        "value": 14
    },
    {
        "lng": "128.905448",
        "lat": "43.117917",
        "areaCode": "吉林省延边朝鲜族自治州安图县",
        "name": "吉林省延边朝鲜族自治州安图县",
        "parent_area": "吉林省延边朝鲜族自治州",
        "value": 55
    },
    {
        "lng": "129.52052",
        "lat": "42.912717",
        "areaCode": "吉林省延边朝鲜族自治州延吉市",
        "name": "吉林省延边朝鲜族自治州延吉市",
        "parent_area": "吉林省延边朝鲜族自治州",
        "value": 146
    },
    {
        "lng": "128.238612",
        "lat": "43.378291",
        "areaCode": "吉林省延边朝鲜族自治州敦化市",
        "name": "吉林省延边朝鲜族自治州敦化市",
        "parent_area": "吉林省延边朝鲜族自治州",
        "value": 224
    },
    {
        "lng": "129.777609",
        "lat": "43.318451",
        "areaCode": "吉林省延边朝鲜族自治州汪清县",
        "name": "吉林省延边朝鲜族自治州汪清县",
        "parent_area": "吉林省延边朝鲜族自治州",
        "value": 63
    },
    {
        "lng": "130.372613",
        "lat": "42.868515",
        "areaCode": "吉林省延边朝鲜族自治州珲春市",
        "name": "吉林省延边朝鲜族自治州珲春市",
        "parent_area": "吉林省延边朝鲜族自治州",
        "value": 67
    },
    {
        "lng": "129.432635",
        "lat": "42.771535",
        "areaCode": "吉林省延边朝鲜族自治州龙井市",
        "name": "吉林省延边朝鲜族自治州龙井市",
        "parent_area": "吉林省延边朝鲜族自治州",
        "value": 18
    },
    {
        "lng": "124.047564",
        "lat": "45.008434",
        "areaCode": "吉林省松原市乾安县",
        "name": "吉林省松原市乾安县",
        "parent_area": "吉林省松原市",
        "value": 85
    },
    {
        "lng": "124.830456",
        "lat": "45.123416",
        "areaCode": "吉林省松原市前郭尔罗斯蒙古族自治县",
        "name": "吉林省松原市前郭尔罗斯蒙古族自治县",
        "parent_area": "吉林省松原市",
        "value": 154
    },
    {
        "lng": "124.823423",
        "lat": "45.178039",
        "areaCode": "吉林省松原市宁江区",
        "name": "吉林省松原市宁江区",
        "parent_area": "吉林省松原市",
        "value": 263
    },
    {
        "lng": "126.056606",
        "lat": "44.994168",
        "areaCode": "吉林省松原市扶余市",
        "name": "吉林省松原市扶余市",
        "parent_area": "吉林省松原市",
        "value": 171
    },
    {
        "lng": "123.974374",
        "lat": "44.281638",
        "areaCode": "吉林省松原市长岭县",
        "name": "吉林省松原市长岭县",
        "parent_area": "吉林省松原市",
        "value": 128
    },
    {
        "lng": "124.298504",
        "lat": "45.513045",
        "areaCode": "吉林省白城市大安市",
        "name": "吉林省白城市大安市",
        "parent_area": "吉林省白城市",
        "value": 114
    },
    {
        "lng": "122.85751",
        "lat": "45.627525",
        "areaCode": "吉林省白城市洮北区",
        "name": "吉林省白城市洮北区",
        "parent_area": "吉林省白城市",
        "value": 140
    },
    {
        "lng": "122.794468",
        "lat": "45.341132",
        "areaCode": "吉林省白城市洮南市",
        "name": "吉林省白城市洮南市",
        "parent_area": "吉林省白城市",
        "value": 95
    },
    {
        "lng": "123.094521",
        "lat": "44.818964",
        "areaCode": "吉林省白城市通榆县",
        "name": "吉林省白城市通榆县",
        "parent_area": "吉林省白城市",
        "value": 65
    },
    {
        "lng": "123.206576",
        "lat": "45.853117",
        "areaCode": "吉林省白城市镇赉县",
        "name": "吉林省白城市镇赉县",
        "parent_area": "吉林省白城市",
        "value": 61
    },
    {
        "lng": "126.924582",
        "lat": "41.817679",
        "areaCode": "吉林省白山市临江市",
        "name": "吉林省白山市临江市",
        "parent_area": "吉林省白山市",
        "value": 46
    },
    {
        "lng": "127.455371",
        "lat": "42.227335",
        "areaCode": "吉林省白山市抚松县",
        "name": "吉林省白山市抚松县",
        "parent_area": "吉林省白山市",
        "value": 119
    },
    {
        "lng": "126.597391",
        "lat": "42.062939",
        "areaCode": "吉林省白山市江源区",
        "name": "吉林省白山市江源区",
        "parent_area": "吉林省白山市",
        "value": 66
    },
    {
        "lng": "126.42362",
        "lat": "41.950424",
        "areaCode": "吉林省白山市浑江区",
        "name": "吉林省白山市浑江区",
        "parent_area": "吉林省白山市",
        "value": 105
    },
    {
        "lng": "128.207584",
        "lat": "41.425896",
        "areaCode": "吉林省白山市长白朝鲜族自治县",
        "name": "吉林省白山市长白朝鲜族自治县",
        "parent_area": "吉林省白山市",
        "value": 19
    },
    {
        "lng": "126.819499",
        "lat": "42.394766",
        "areaCode": "吉林省白山市靖宇县",
        "name": "吉林省白山市靖宇县",
        "parent_area": "吉林省白山市",
        "value": 26
    },
    {
        "lng": "125.537378",
        "lat": "42.683311",
        "areaCode": "吉林省辽源市东丰县",
        "name": "吉林省辽源市东丰县",
        "parent_area": "吉林省辽源市",
        "value": 111
    },
    {
        "lng": "124.997589",
        "lat": "42.931879",
        "areaCode": "吉林省辽源市东辽县",
        "name": "吉林省辽源市东辽县",
        "parent_area": "吉林省辽源市",
        "value": 52
    },
    {
        "lng": "125.155373",
        "lat": "42.933308",
        "areaCode": "吉林省辽源市西安区",
        "name": "吉林省辽源市西安区",
        "parent_area": "吉林省辽源市",
        "value": 45
    },
    {
        "lng": "125.143452",
        "lat": "42.907634",
        "areaCode": "吉林省辽源市龙山区",
        "name": "吉林省辽源市龙山区",
        "parent_area": "吉林省辽源市",
        "value": 139
    },
    {
        "lng": "125.933595",
        "lat": "41.708405",
        "areaCode": "吉林省通化市东昌区",
        "name": "吉林省通化市东昌区",
        "parent_area": "吉林省通化市",
        "value": 148
    },
    {
        "lng": "126.049592",
        "lat": "41.779966",
        "areaCode": "吉林省通化市二道江区",
        "name": "吉林省通化市二道江区",
        "parent_area": "吉林省通化市",
        "value": 56
    },
    {
        "lng": "125.751424",
        "lat": "42.290871",
        "areaCode": "吉林省通化市柳河县",
        "name": "吉林省通化市柳河县",
        "parent_area": "吉林省通化市",
        "value": 105
    },
    {
        "lng": "125.717608",
        "lat": "42.544884",
        "areaCode": "吉林省通化市梅河口市",
        "name": "吉林省通化市梅河口市",
        "parent_area": "吉林省通化市",
        "value": 159
    },
    {
        "lng": "126.053581",
        "lat": "42.6907",
        "areaCode": "吉林省通化市辉南县",
        "name": "吉林省通化市辉南县",
        "parent_area": "吉林省通化市",
        "value": 99
    },
    {
        "lng": "125.765392",
        "lat": "41.685682",
        "areaCode": "吉林省通化市通化县",
        "name": "吉林省通化市通化县",
        "parent_area": "吉林省通化市",
        "value": 69
    },
    {
        "lng": "126.199577",
        "lat": "41.1313",
        "areaCode": "吉林省通化市集安市",
        "name": "吉林省通化市集安市",
        "parent_area": "吉林省通化市",
        "value": 52
    },
    {
        "lng": "125.380468",
        "lat": "43.871277",
        "areaCode": "吉林省长春市二道区",
        "name": "吉林省长春市二道区",
        "parent_area": "吉林省长春市",
        "value": 311
    },
    {
        "lng": "125.191484",
        "lat": "44.438904",
        "areaCode": "吉林省长春市农安县",
        "name": "吉林省长春市农安县",
        "parent_area": "吉林省长春市",
        "value": 285
    },
    {
        "lng": "125.35661",
        "lat": "43.869873",
        "areaCode": "吉林省长春市南关区",
        "name": "吉林省长春市南关区",
        "parent_area": "吉林省长春市",
        "value": 451
    },
    {
        "lng": "125.671448",
        "lat": "43.531091",
        "areaCode": "吉林省长春市双阳区",
        "name": "吉林省长春市双阳区",
        "parent_area": "吉林省长春市",
        "value": 95
    },
    {
        "lng": "125.334625",
        "lat": "43.949502",
        "areaCode": "吉林省长春市宽城区",
        "name": "吉林省长春市宽城区",
        "parent_area": "吉林省长春市",
        "value": 415
    },
    {
        "lng": "125.734515",
        "lat": "44.527161",
        "areaCode": "吉林省长春市德惠市",
        "name": "吉林省长春市德惠市",
        "parent_area": "吉林省长春市",
        "value": 288
    },
    {
        "lng": "125.295401",
        "lat": "43.840641",
        "areaCode": "吉林省长春市朝阳区",
        "name": "吉林省长春市朝阳区",
        "parent_area": "吉林省长春市",
        "value": 380
    },
    {
        "lng": "126.539609",
        "lat": "44.84544",
        "areaCode": "吉林省长春市榆树市",
        "name": "吉林省长春市榆树市",
        "parent_area": "吉林省长春市",
        "value": 458
    },
    {
        "lng": "125.262443",
        "lat": "43.88681",
        "areaCode": "吉林省长春市绿园区",
        "name": "吉林省长春市绿园区",
        "parent_area": "吉林省长春市",
        "value": 455
    },
    {
        "lng": "103.824455",
        "lat": "29.413185",
        "areaCode": "四川省乐山市五通桥区",
        "name": "四川省乐山市五通桥区",
        "parent_area": "四川省乐山市",
        "value": 156
    },
    {
        "lng": "104.076511",
        "lat": "29.657303",
        "areaCode": "四川省乐山市井研县",
        "name": "四川省乐山市井研县",
        "parent_area": "四川省乐山市",
        "value": 191
    },
    {
        "lng": "103.57841",
        "lat": "29.743846",
        "areaCode": "四川省乐山市夹江县",
        "name": "四川省乐山市夹江县",
        "parent_area": "四川省乐山市",
        "value": 190
    },
    {
        "lng": "103.491546",
        "lat": "29.606976",
        "areaCode": "四川省乐山市峨眉山市",
        "name": "四川省乐山市峨眉山市",
        "parent_area": "四川省乐山市",
        "value": 220
    },
    {
        "lng": "103.268577",
        "lat": "29.236089",
        "areaCode": "四川省乐山市峨边彝族自治县",
        "name": "四川省乐山市峨边彝族自治县",
        "parent_area": "四川省乐山市",
        "value": 51
    },
    {
        "lng": "103.767559",
        "lat": "29.561364",
        "areaCode": "四川省乐山市市中区",
        "name": "四川省乐山市市中区",
        "parent_area": "四川省乐山市",
        "value": 389
    },
    {
        "lng": "103.908467",
        "lat": "28.962888",
        "areaCode": "四川省乐山市沐川县",
        "name": "四川省乐山市沐川县",
        "parent_area": "四川省乐山市",
        "value": 153
    },
    {
        "lng": "103.556436",
        "lat": "29.419272",
        "areaCode": "四川省乐山市沙湾区",
        "name": "四川省乐山市沙湾区",
        "parent_area": "四川省乐山市",
        "value": 78
    },
    {
        "lng": "103.955507",
        "lat": "29.214219",
        "areaCode": "四川省乐山市犍为县",
        "name": "四川省乐山市犍为县",
        "parent_area": "四川省乐山市",
        "value": 444
    },
    {
        "lng": "103.085394",
        "lat": "29.250804",
        "areaCode": "四川省乐山市金口河区",
        "name": "四川省乐山市金口河区",
        "parent_area": "四川省乐山市",
        "value": 20
    },
    {
        "lng": "103.552454",
        "lat": "28.841736",
        "areaCode": "四川省乐山市马边彝族自治县",
        "name": "四川省乐山市马边彝族自治县",
        "parent_area": "四川省乐山市",
        "value": 84
    },
    {
        "lng": "104.674498",
        "lat": "29.533635",
        "areaCode": "四川省内江市威远县",
        "name": "四川省内江市威远县",
        "parent_area": "四川省内江市",
        "value": 753
    },
    {
        "lng": "105.082547",
        "lat": "29.598486",
        "areaCode": "四川省内江市东兴区",
        "name": "四川省内江市东兴区",
        "parent_area": "四川省内江市",
        "value": 795
    },
    {
        "lng": "105.074574",
        "lat": "29.59271",
        "areaCode": "四川省内江市市中区",
        "name": "四川省内江市市中区",
        "parent_area": "四川省内江市",
        "value": 387
    },
    {
        "lng": "104.858495",
        "lat": "29.770234",
        "areaCode": "四川省内江市资中县",
        "name": "四川省内江市资中县",
        "parent_area": "四川省内江市",
        "value": 962
    },
    {
        "lng": "105.294291",
        "lat": "29.345238",
        "areaCode": "四川省内江市隆昌县",
        "name": "四川省内江市隆昌县",
        "parent_area": "四川省内江市",
        "value": 537
    },
    {
        "lng": "106.30943",
        "lat": "31.277597",
        "areaCode": "四川省南充市仪陇县",
        "name": "四川省南充市仪陇县",
        "parent_area": "四川省南充市",
        "value": 1275
    },
    {
        "lng": "106.043578",
        "lat": "31.353705",
        "areaCode": "四川省南充市南部县",
        "name": "四川省南充市南部县",
        "parent_area": "四川省南充市",
        "value": 1472
    },
    {
        "lng": "106.078433",
        "lat": "30.764896",
        "areaCode": "四川省南充市嘉陵区",
        "name": "四川省南充市嘉陵区",
        "parent_area": "四川省南充市",
        "value": 706
    },
    {
        "lng": "106.572408",
        "lat": "31.083003",
        "areaCode": "四川省南充市营山县",
        "name": "四川省南充市营山县",
        "parent_area": "四川省南充市",
        "value": 1413
    },
    {
        "lng": "106.418482",
        "lat": "31.034631",
        "areaCode": "四川省南充市蓬安县",
        "name": "四川省南充市蓬安县",
        "parent_area": "四川省南充市",
        "value": 939
    },
    {
        "lng": "105.907611",
        "lat": "31.000688",
        "areaCode": "四川省南充市西充县",
        "name": "四川省南充市西充县",
        "parent_area": "四川省南充市",
        "value": 544
    },
    {
        "lng": "106.098411",
        "lat": "30.802753",
        "areaCode": "四川省南充市顺庆区",
        "name": "四川省南充市顺庆区",
        "parent_area": "四川省南充市",
        "value": 970
    },
    {
        "lng": "106.011565",
        "lat": "31.564075",
        "areaCode": "四川省南充市阆中市",
        "name": "四川省南充市阆中市",
        "parent_area": "四川省南充市",
        "value": 881
    },
    {
        "lng": "106.12554",
        "lat": "30.787255",
        "areaCode": "四川省南充市高坪区",
        "name": "四川省南充市高坪区",
        "parent_area": "四川省南充市",
        "value": 607
    },
    {
        "lng": "105.242402",
        "lat": "28.309905",
        "areaCode": "四川省宜宾市兴文县",
        "name": "四川省宜宾市兴文县",
        "parent_area": "四川省宜宾市",
        "value": 300
    },
    {
        "lng": "104.600979",
        "lat": "29.002377",
        "areaCode": "四川省宜宾市宜宾县",
        "name": "四川省宜宾市宜宾县",
        "parent_area": "四川省宜宾市",
        "value": 1070
    },
    {
        "lng": "104.976513",
        "lat": "28.851504",
        "areaCode": "四川省宜宾市南溪区",
        "name": "四川省宜宾市南溪区",
        "parent_area": "四川省宜宾市",
        "value": 520
    },
    {
        "lng": "104.352675",
        "lat": "28.834275",
        "areaCode": "四川省宜宾市屏山县",
        "name": "四川省宜宾市屏山县",
        "parent_area": "四川省宜宾市",
        "value": 237
    },
    {
        "lng": "105.073595",
        "lat": "28.72961",
        "areaCode": "四川省宜宾市江安县",
        "name": "四川省宜宾市江安县",
        "parent_area": "四川省宜宾市",
        "value": 475
    },
    {
        "lng": "104.715575",
        "lat": "28.44432",
        "areaCode": "四川省宜宾市珙县",
        "name": "四川省宜宾市珙县",
        "parent_area": "四川省宜宾市",
        "value": 357
    },
    {
        "lng": "104.517406",
        "lat": "28.170174",
        "areaCode": "四川省宜宾市筠连县",
        "name": "四川省宜宾市筠连县",
        "parent_area": "四川省宜宾市",
        "value": 702
    },
    {
        "lng": "104.927564",
        "lat": "28.588133",
        "areaCode": "四川省宜宾市长宁县",
        "name": "四川省宜宾市长宁县",
        "parent_area": "四川省宜宾市",
        "value": 390
    },
    {
        "lng": "104.626438",
        "lat": "28.772052",
        "areaCode": "四川省宜宾市翠屏区",
        "name": "四川省宜宾市翠屏区",
        "parent_area": "四川省宜宾市",
        "value": 623
    },
    {
        "lng": "104.524411",
        "lat": "28.442511",
        "areaCode": "四川省宜宾市高县",
        "name": "四川省宜宾市高县",
        "parent_area": "四川省宜宾市",
        "value": 554
    },
    {
        "lng": "105.850423",
        "lat": "32.441616",
        "areaCode": "四川省广元市元坝区",
        "name": "四川省广元市元坝区",
        "parent_area": "四川省广元市",
        "value": 195
    },
    {
        "lng": "105.852426",
        "lat": "32.440208",
        "areaCode": "四川省广元市利州区",
        "name": "四川省广元市利州区",
        "parent_area": "四川省广元市",
        "value": 430
    },
    {
        "lng": "105.531576",
        "lat": "32.293479",
        "areaCode": "四川省广元市剑阁县",
        "name": "四川省广元市剑阁县",
        "parent_area": "四川省广元市",
        "value": 669
    },
    {
        "lng": "106.296491",
        "lat": "32.235097",
        "areaCode": "四川省广元市旺苍县",
        "name": "四川省广元市旺苍县",
        "parent_area": "四川省广元市",
        "value": 360
    },
    {
        "lng": "105.896589",
        "lat": "32.649726",
        "areaCode": "四川省广元市朝天区",
        "name": "四川省广元市朝天区",
        "parent_area": "四川省广元市",
        "value": 101
    },
    {
        "lng": "105.245407",
        "lat": "32.581617",
        "areaCode": "四川省广元市青川县",
        "name": "四川省广元市青川县",
        "parent_area": "四川省广元市",
        "value": 119
    },
    {
        "lng": "105.941483",
        "lat": "31.738684",
        "areaCode": "四川省广元市苍溪县",
        "name": "四川省广元市苍溪县",
        "parent_area": "四川省广元市",
        "value": 798
    },
    {
        "lng": "106.789462",
        "lat": "30.396307",
        "areaCode": "四川省广安市华蓥市",
        "name": "四川省广安市华蓥市",
        "parent_area": "四川省广安市",
        "value": 325
    },
    {
        "lng": "106.446411",
        "lat": "30.54412",
        "areaCode": "四川省广安市岳池县",
        "name": "四川省广安市岳池县",
        "parent_area": "四川省广安市",
        "value": 1321
    },
    {
        "lng": "106.648531",
        "lat": "30.479768",
        "areaCode": "四川省广安市广安区",
        "name": "四川省广安市广安区",
        "parent_area": "四川省广安市",
        "value": 1054
    },
    {
        "lng": "106.302462",
        "lat": "30.355496",
        "areaCode": "四川省广安市武胜县",
        "name": "四川省广安市武胜县",
        "parent_area": "四川省广安市",
        "value": 727
    },
    {
        "lng": "106.936403",
        "lat": "30.341073",
        "areaCode": "四川省广安市邻水县",
        "name": "四川省广安市邻水县",
        "parent_area": "四川省广安市",
        "value": 1138
    },
    {
        "lng": "104.68553",
        "lat": "31.038954",
        "areaCode": "四川省德阳市中江县",
        "name": "四川省德阳市中江县",
        "parent_area": "四川省德阳市",
        "value": 1332
    },
    {
        "lng": "104.174427",
        "lat": "31.132889",
        "areaCode": "四川省德阳市什邡市",
        "name": "四川省德阳市什邡市",
        "parent_area": "四川省德阳市",
        "value": 267
    },
    {
        "lng": "104.288422",
        "lat": "30.982415",
        "areaCode": "四川省德阳市广汉市",
        "name": "四川省德阳市广汉市",
        "parent_area": "四川省德阳市",
        "value": 294
    },
    {
        "lng": "104.423439",
        "lat": "31.148596",
        "areaCode": "四川省德阳市旌阳区",
        "name": "四川省德阳市旌阳区",
        "parent_area": "四川省德阳市",
        "value": 543
    },
    {
        "lng": "104.227609",
        "lat": "31.343592",
        "areaCode": "四川省德阳市绵竹市",
        "name": "四川省德阳市绵竹市",
        "parent_area": "四川省德阳市",
        "value": 324
    },
    {
        "lng": "104.517414",
        "lat": "31.324179",
        "areaCode": "四川省德阳市罗江县",
        "name": "四川省德阳市罗江县",
        "parent_area": "四川省德阳市",
        "value": 206
    },
    {
        "lng": "103.930392",
        "lat": "30.580399",
        "areaCode": "四川省成都市双流县",
        "name": "四川省成都市双流县",
        "parent_area": "四川省成都市",
        "value": 1609
    },
    {
        "lng": "103.52753",
        "lat": "30.593155",
        "areaCode": "四川省成都市大邑县",
        "name": "四川省成都市大邑县",
        "parent_area": "四川省成都市",
        "value": 221
    },
    {
        "lng": "103.679433",
        "lat": "30.636596",
        "areaCode": "四川省成都市崇州市",
        "name": "四川省成都市崇州市",
        "parent_area": "四川省成都市",
        "value": 222
    },
    {
        "lng": "103.965561",
        "lat": "30.995564",
        "areaCode": "四川省成都市彭州市",
        "name": "四川省成都市彭州市",
        "parent_area": "四川省成都市",
        "value": 342
    },
    {
        "lng": "104.108592",
        "lat": "30.665589",
        "areaCode": "四川省成都市成华区",
        "name": "四川省成都市成华区",
        "parent_area": "四川省成都市",
        "value": 991
    },
    {
        "lng": "103.817433",
        "lat": "30.416364",
        "areaCode": "四川省成都市新津县",
        "name": "四川省成都市新津县",
        "parent_area": "四川省成都市",
        "value": 170
    },
    {
        "lng": "104.165393",
        "lat": "30.829407",
        "areaCode": "四川省成都市新都区",
        "name": "四川省成都市新都区",
        "parent_area": "四川省成都市",
        "value": 704
    },
    {
        "lng": "104.049424",
        "lat": "30.648713",
        "areaCode": "四川省成都市武侯区",
        "name": "四川省成都市武侯区",
        "parent_area": "四川省成都市",
        "value": 1513
    },
    {
        "lng": "103.863573",
        "lat": "30.688487",
        "areaCode": "四川省成都市温江区",
        "name": "四川省成都市温江区",
        "parent_area": "四川省成都市",
        "value": 485
    },
    {
        "lng": "103.512571",
        "lat": "30.2025",
        "areaCode": "四川省成都市蒲江县",
        "name": "四川省成都市蒲江县",
        "parent_area": "四川省成都市",
        "value": 114
    },
    {
        "lng": "103.470481",
        "lat": "30.416399",
        "areaCode": "四川省成都市邛崃市",
        "name": "四川省成都市邛崃市",
        "parent_area": "四川省成都市",
        "value": 295
    },
    {
        "lng": "103.905446",
        "lat": "30.799538",
        "areaCode": "四川省成都市郫县",
        "name": "四川省成都市郫县",
        "parent_area": "四川省成都市",
        "value": 746
    },
    {
        "lng": "103.653534",
        "lat": "30.994257",
        "areaCode": "四川省成都市都江堰市",
        "name": "四川省成都市都江堰市",
        "parent_area": "四川省成都市",
        "value": 276
    },
    {
        "lng": "104.418443",
        "lat": "30.868358",
        "areaCode": "四川省成都市金堂县",
        "name": "四川省成都市金堂县",
        "parent_area": "四川省成都市",
        "value": 555
    },
    {
        "lng": "104.057404",
        "lat": "30.697356",
        "areaCode": "四川省成都市金牛区",
        "name": "四川省成都市金牛区",
        "parent_area": "四川省成都市",
        "value": 930
    },
    {
        "lng": "104.089562",
        "lat": "30.661904",
        "areaCode": "四川省成都市锦江区",
        "name": "四川省成都市锦江区",
        "parent_area": "四川省成都市",
        "value": 732
    },
    {
        "lng": "104.257512",
        "lat": "30.884421",
        "areaCode": "四川省成都市青白江区",
        "name": "四川省成都市青白江区",
        "parent_area": "四川省成都市",
        "value": 275
    },
    {
        "lng": "104.067445",
        "lat": "30.680038",
        "areaCode": "四川省成都市青羊区",
        "name": "四川省成都市青羊区",
        "parent_area": "四川省成都市",
        "value": 739
    },
    {
        "lng": "104.281397",
        "lat": "30.562698",
        "areaCode": "四川省成都市龙泉驿区",
        "name": "四川省成都市龙泉驿区",
        "parent_area": "四川省成都市",
        "value": 676
    },
    {
        "lng": "101.725541",
        "lat": "26.588033",
        "areaCode": "四川省攀枝花市东区",
        "name": "四川省攀枝花市东区",
        "parent_area": "四川省攀枝花市",
        "value": 171
    },
    {
        "lng": "101.74445",
        "lat": "26.504019",
        "areaCode": "四川省攀枝花市仁和区",
        "name": "四川省攀枝花市仁和区",
        "parent_area": "四川省攀枝花市",
        "value": 74
    },
    {
        "lng": "101.860499",
        "lat": "26.688767",
        "areaCode": "四川省攀枝花市盐边县",
        "name": "四川省攀枝花市盐边县",
        "parent_area": "四川省攀枝花市",
        "value": 39
    },
    {
        "lng": "102.11644",
        "lat": "26.896968",
        "areaCode": "四川省攀枝花市米易县",
        "name": "四川省攀枝花市米易县",
        "parent_area": "四川省攀枝花市",
        "value": 85
    },
    {
        "lng": "101.725541",
        "lat": "26.588033",
        "areaCode": "四川省攀枝花市西区",
        "name": "四川省攀枝花市西区",
        "parent_area": "四川省攀枝花市",
        "value": 70
    },
    {
        "lng": "105.451175",
        "lat": "28.161786",
        "areaCode": "四川省泸州市叙永县",
        "name": "四川省泸州市叙永县",
        "parent_area": "四川省泸州市",
        "value": 388
    },
    {
        "lng": "105.819142",
        "lat": "28.044758",
        "areaCode": "四川省泸州市古蔺县",
        "name": "四川省泸州市古蔺县",
        "parent_area": "四川省泸州市",
        "value": 307
    },
    {
        "lng": "105.837368",
        "lat": "28.818006",
        "areaCode": "四川省泸州市合江县",
        "name": "四川省泸州市合江县",
        "parent_area": "四川省泸州市",
        "value": 630
    },
    {
        "lng": "105.441573",
        "lat": "28.884498",
        "areaCode": "四川省泸州市江阳区",
        "name": "四川省泸州市江阳区",
        "parent_area": "四川省泸州市",
        "value": 427
    },
    {
        "lng": "105.38831",
        "lat": "29.157828",
        "areaCode": "四川省泸州市泸县",
        "name": "四川省泸州市泸县",
        "parent_area": "四川省泸州市",
        "value": 555
    },
    {
        "lng": "105.378005",
        "lat": "28.779001",
        "areaCode": "四川省泸州市纳溪区",
        "name": "四川省泸州市纳溪区",
        "parent_area": "四川省泸州市",
        "value": 256
    },
    {
        "lng": "105.444594",
        "lat": "28.919084",
        "areaCode": "四川省泸州市龙马潭区",
        "name": "四川省泸州市龙马潭区",
        "parent_area": "四川省泸州市",
        "value": 303
    },
    {
        "lng": "103.838525",
        "lat": "30.048272",
        "areaCode": "四川省眉山市东坡区",
        "name": "四川省眉山市东坡区",
        "parent_area": "四川省眉山市",
        "value": 497
    },
    {
        "lng": "103.519583",
        "lat": "30.020363",
        "areaCode": "四川省眉山市丹棱县",
        "name": "四川省眉山市丹棱县",
        "parent_area": "四川省眉山市",
        "value": 86
    },
    {
        "lng": "104.140477",
        "lat": "30.001664",
        "areaCode": "四川省眉山市仁寿县",
        "name": "四川省眉山市仁寿县",
        "parent_area": "四川省眉山市",
        "value": 1022
    },
    {
        "lng": "103.879558",
        "lat": "30.198854",
        "areaCode": "四川省眉山市彭山县",
        "name": "四川省眉山市彭山县",
        "parent_area": "四川省眉山市",
        "value": 143
    },
    {
        "lng": "103.379602",
        "lat": "29.910616",
        "areaCode": "四川省眉山市洪雅县",
        "name": "四川省眉山市洪雅县",
        "parent_area": "四川省眉山市",
        "value": 237
    },
    {
        "lng": "103.853559",
        "lat": "29.837055",
        "areaCode": "四川省眉山市青神县",
        "name": "四川省眉山市青神县",
        "parent_area": "四川省眉山市",
        "value": 91
    },
    {
        "lng": "105.10149",
        "lat": "31.101586",
        "areaCode": "四川省绵阳市三台县",
        "name": "四川省绵阳市三台县",
        "parent_area": "四川省绵阳市",
        "value": 1645
    },
    {
        "lng": "104.361586",
        "lat": "31.963084",
        "areaCode": "四川省绵阳市北川羌族自治县",
        "name": "四川省绵阳市北川羌族自治县",
        "parent_area": "四川省绵阳市",
        "value": 152
    },
    {
        "lng": "104.573555",
        "lat": "31.540751",
        "areaCode": "四川省绵阳市安县",
        "name": "四川省绵阳市安县",
        "parent_area": "四川省绵阳市",
        "value": 469
    },
    {
        "lng": "104.535422",
        "lat": "32.414682",
        "areaCode": "四川省绵阳市平武县",
        "name": "四川省绵阳市平武县",
        "parent_area": "四川省绵阳市",
        "value": 88
    },
    {
        "lng": "105.177567",
        "lat": "31.648313",
        "areaCode": "四川省绵阳市梓潼县",
        "name": "四川省绵阳市梓潼县",
        "parent_area": "四川省绵阳市",
        "value": 378
    },
    {
        "lng": "104.752412",
        "lat": "31.784128",
        "areaCode": "四川省绵阳市江油市",
        "name": "四川省绵阳市江油市",
        "parent_area": "四川省绵阳市",
        "value": 718
    },
    {
        "lng": "104.76342",
        "lat": "31.461314",
        "areaCode": "四川省绵阳市涪城区",
        "name": "四川省绵阳市涪城区",
        "parent_area": "四川省绵阳市",
        "value": 917
    },
    {
        "lng": "104.772429",
        "lat": "31.479904",
        "areaCode": "四川省绵阳市游仙区",
        "name": "四川省绵阳市游仙区",
        "parent_area": "四川省绵阳市",
        "value": 572
    },
    {
        "lng": "105.395503",
        "lat": "31.214319",
        "areaCode": "四川省绵阳市盐亭县",
        "name": "四川省绵阳市盐亭县",
        "parent_area": "四川省绵阳市",
        "value": 815
    },
    {
        "lng": "104.780416",
        "lat": "29.369929",
        "areaCode": "四川省自贡市大安区",
        "name": "四川省自贡市大安区",
        "parent_area": "四川省自贡市",
        "value": 317
    },
    {
        "lng": "104.981494",
        "lat": "29.186886",
        "areaCode": "四川省自贡市富顺县",
        "name": "四川省自贡市富顺县",
        "parent_area": "四川省自贡市",
        "value": 794
    },
    {
        "lng": "104.880409",
        "lat": "29.278797",
        "areaCode": "四川省自贡市沿滩区",
        "name": "四川省自贡市沿滩区",
        "parent_area": "四川省自贡市",
        "value": 290
    },
    {
        "lng": "104.783447",
        "lat": "29.343499",
        "areaCode": "四川省自贡市自流井区",
        "name": "四川省自贡市自流井区",
        "parent_area": "四川省自贡市",
        "value": 327
    },
    {
        "lng": "104.423875",
        "lat": "29.450987",
        "areaCode": "四川省自贡市荣县",
        "name": "四川省自贡市荣县",
        "parent_area": "四川省自贡市",
        "value": 686
    },
    {
        "lng": "104.721557",
        "lat": "29.351476",
        "areaCode": "四川省自贡市贡井区",
        "name": "四川省自贡市贡井区",
        "parent_area": "四川省自贡市",
        "value": 228
    },
    {
        "lng": "105.243404",
        "lat": "30.60081",
        "areaCode": "四川省遂宁市大英县",
        "name": "四川省遂宁市大英县",
        "parent_area": "四川省遂宁市",
        "value": 641
    },
    {
        "lng": "105.462467",
        "lat": "30.361496",
        "areaCode": "四川省遂宁市安居区",
        "name": "四川省遂宁市安居区",
        "parent_area": "四川省遂宁市",
        "value": 518
    },
    {
        "lng": "105.39451",
        "lat": "30.877139",
        "areaCode": "四川省遂宁市射洪县",
        "name": "四川省遂宁市射洪县",
        "parent_area": "四川省遂宁市",
        "value": 1111
    },
    {
        "lng": "105.574523",
        "lat": "30.531471",
        "areaCode": "四川省遂宁市船山区",
        "name": "四川省遂宁市船山区",
        "parent_area": "四川省遂宁市",
        "value": 915
    },
    {
        "lng": "105.713446",
        "lat": "30.763751",
        "areaCode": "四川省遂宁市蓬溪县",
        "name": "四川省遂宁市蓬溪县",
        "parent_area": "四川省遂宁市",
        "value": 595
    },
    {
        "lng": "117.320569",
        "lat": "39.092332",
        "areaCode": "天津市天津市东丽区",
        "name": "天津市天津市东丽区",
        "parent_area": "天津市天津市",
        "value": 522
    },
    {
        "lng": "117.141403",
        "lat": "39.230344",
        "areaCode": "天津市天津市北辰区",
        "name": "天津市天津市北辰区",
        "parent_area": "天津市天津市",
        "value": 274
    },
    {
        "lng": "117.156515",
        "lat": "39.144105",
        "areaCode": "天津市天津市南开区",
        "name": "天津市天津市南开区",
        "parent_area": "天津市天津市",
        "value": 297
    },
    {
        "lng": "117.221467",
        "lat": "39.12339",
        "areaCode": "天津市天津市和平区",
        "name": "天津市天津市和平区",
        "parent_area": "天津市天津市",
        "value": 150
    },
    {
        "lng": "117.832393",
        "lat": "39.336956",
        "areaCode": "天津市天津市宁河县",
        "name": "天津市天津市宁河县",
        "parent_area": "天津市天津市",
        "value": 116
    },
    {
        "lng": "117.316601",
        "lat": "39.723194",
        "areaCode": "天津市天津市宝坻区",
        "name": "天津市天津市宝坻区",
        "parent_area": "天津市天津市",
        "value": 203
    },
    {
        "lng": "117.050597",
        "lat": "39.389871",
        "areaCode": "天津市天津市武清区",
        "name": "天津市天津市武清区",
        "parent_area": "天津市天津市",
        "value": 430
    },
    {
        "lng": "117.258413",
        "lat": "39.134487",
        "areaCode": "天津市天津市河东区",
        "name": "天津市天津市河东区",
        "parent_area": "天津市天津市",
        "value": 377
    },
    {
        "lng": "117.203593",
        "lat": "39.153485",
        "areaCode": "天津市天津市河北区",
        "name": "天津市天津市河北区",
        "parent_area": "天津市天津市",
        "value": 266
    },
    {
        "lng": "117.229416",
        "lat": "39.115718",
        "areaCode": "天津市天津市河西区",
        "name": "天津市天津市河西区",
        "parent_area": "天津市天津市",
        "value": 256
    },
    {
        "lng": "117.363387",
        "lat": "38.944149",
        "areaCode": "天津市天津市津南区",
        "name": "天津市天津市津南区",
        "parent_area": "天津市天津市",
        "value": 330
    },
    {
        "lng": "117.717399",
        "lat": "39.009416",
        "areaCode": "天津市天津市滨海新区",
        "name": "天津市天津市滨海新区",
        "parent_area": "天津市天津市",
        "value": 893
    },
    {
        "lng": "117.157518",
        "lat": "39.173286",
        "areaCode": "天津市天津市红桥区",
        "name": "天津市天津市红桥区",
        "parent_area": "天津市天津市",
        "value": 211
    },
    {
        "lng": "117.01441",
        "lat": "39.148727",
        "areaCode": "天津市天津市西青区",
        "name": "天津市天津市西青区",
        "parent_area": "天津市天津市",
        "value": 491
    },
    {
        "lng": "116.980469",
        "lat": "38.953371",
        "areaCode": "天津市天津市静海县",
        "name": "天津市天津市静海县",
        "parent_area": "天津市天津市",
        "value": 231
    },
    {
        "lng": "105.691537",
        "lat": "37.497421",
        "areaCode": "宁夏回族自治区中卫市中宁县",
        "name": "宁夏回族自治区中卫市中宁县",
        "parent_area": "宁夏回族自治区中卫市",
        "value": 138
    },
    {
        "lng": "105.203571",
        "lat": "37.505701",
        "areaCode": "宁夏回族自治区中卫市沙坡头区",
        "name": "宁夏回族自治区中卫市沙坡头区",
        "parent_area": "宁夏回族自治区中卫市",
        "value": 221
    },
    {
        "lng": "105.650555",
        "lat": "36.570781",
        "areaCode": "宁夏回族自治区中卫市海原县",
        "name": "宁夏回族自治区中卫市海原县",
        "parent_area": "宁夏回族自治区中卫市",
        "value": 136
    },
    {
        "lng": "106.219407",
        "lat": "37.990746",
        "areaCode": "宁夏回族自治区吴忠市利通区",
        "name": "宁夏回族自治区吴忠市利通区",
        "parent_area": "宁夏回族自治区吴忠市",
        "value": 284
    },
    {
        "lng": "105.920599",
        "lat": "36.98627",
        "areaCode": "宁夏回族自治区吴忠市同心县",
        "name": "宁夏回族自治区吴忠市同心县",
        "parent_area": "宁夏回族自治区吴忠市",
        "value": 129
    },
    {
        "lng": "107.41338",
        "lat": "37.789296",
        "areaCode": "宁夏回族自治区吴忠市盐池县",
        "name": "宁夏回族自治区吴忠市盐池县",
        "parent_area": "宁夏回族自治区吴忠市",
        "value": 58
    },
    {
        "lng": "106.068421",
        "lat": "37.431882",
        "areaCode": "宁夏回族自治区吴忠市红寺堡区",
        "name": "宁夏回族自治区吴忠市红寺堡区",
        "parent_area": "宁夏回族自治区吴忠市",
        "value": 43
    },
    {
        "lng": "106.08537",
        "lat": "38.027412",
        "areaCode": "宁夏回族自治区吴忠市青铜峡市",
        "name": "宁夏回族自治区吴忠市青铜峡市",
        "parent_area": "宁夏回族自治区吴忠市",
        "value": 140
    },
    {
        "lng": "106.37461",
        "lat": "39.024848",
        "areaCode": "宁夏回族自治区石嘴山市大武口区",
        "name": "宁夏回族自治区石嘴山市大武口区",
        "parent_area": "宁夏回族自治区石嘴山市",
        "value": 142
    },
    {
        "lng": "106.536518",
        "lat": "38.919607",
        "areaCode": "宁夏回族自治区石嘴山市平罗县",
        "name": "宁夏回族自治区石嘴山市平罗县",
        "parent_area": "宁夏回族自治区石嘴山市",
        "value": 72
    },
    {
        "lng": "106.78843",
        "lat": "39.245388",
        "areaCode": "宁夏回族自治区石嘴山市惠农区",
        "name": "宁夏回族自治区石嘴山市惠农区",
        "parent_area": "宁夏回族自治区石嘴山市",
        "value": 75
    },
    {
        "lng": "106.295494",
        "lat": "38.479579",
        "areaCode": "宁夏回族自治区银川市兴庆区",
        "name": "宁夏回族自治区银川市兴庆区",
        "parent_area": "宁夏回族自治区银川市",
        "value": 392
    },
    {
        "lng": "106.259605",
        "lat": "38.283002",
        "areaCode": "宁夏回族自治区银川市永宁县",
        "name": "宁夏回族自治区银川市永宁县",
        "parent_area": "宁夏回族自治区银川市",
        "value": 126
    },
    {
        "lng": "106.156581",
        "lat": "38.496817",
        "areaCode": "宁夏回族自治区银川市西夏区",
        "name": "宁夏回族自治区银川市西夏区",
        "parent_area": "宁夏回族自治区银川市",
        "value": 197
    },
    {
        "lng": "106.34644",
        "lat": "38.108659",
        "areaCode": "宁夏回族自治区银川市灵武市",
        "name": "宁夏回族自治区银川市灵武市",
        "parent_area": "宁夏回族自治区银川市",
        "value": 115
    },
    {
        "lng": "106.356518",
        "lat": "38.560407",
        "areaCode": "宁夏回族自治区银川市贺兰县",
        "name": "宁夏回族自治区银川市贺兰县",
        "parent_area": "宁夏回族自治区银川市",
        "value": 157
    },
    {
        "lng": "106.249561",
        "lat": "38.478695",
        "areaCode": "宁夏回族自治区银川市金凤区",
        "name": "宁夏回族自治区银川市金凤区",
        "parent_area": "宁夏回族自治区银川市",
        "value": 353
    },
    {
        "lng": "116.191494",
        "lat": "33.155596",
        "areaCode": "安徽省亳州市利辛县",
        "name": "安徽省亳州市利辛县",
        "parent_area": "安徽省亳州市",
        "value": 1448
    },
    {
        "lng": "116.221609",
        "lat": "33.498567",
        "areaCode": "安徽省亳州市涡阳县",
        "name": "安徽省亳州市涡阳县",
        "parent_area": "安徽省亳州市",
        "value": 1063
    },
    {
        "lng": "116.571589",
        "lat": "33.271658",
        "areaCode": "安徽省亳州市蒙城县",
        "name": "安徽省亳州市蒙城县",
        "parent_area": "安徽省亳州市",
        "value": 984
    },
    {
        "lng": "115.785472",
        "lat": "33.882663",
        "areaCode": "安徽省亳州市谯城区",
        "name": "安徽省亳州市谯城区",
        "parent_area": "安徽省亳州市",
        "value": 1357
    },
    {
        "lng": "116.955602",
        "lat": "31.467692",
        "areaCode": "安徽省六安市舒城县",
        "name": "安徽省六安市舒城县",
        "parent_area": "安徽省六安市",
        "value": 590
    },
    {
        "lng": "116.805563",
        "lat": "32.561546",
        "areaCode": "安徽省六安市寿县",
        "name": "安徽省六安市寿县",
        "parent_area": "安徽省六安市",
        "value": 930
    },
    {
        "lng": "116.48655",
        "lat": "31.743626",
        "areaCode": "安徽省六安市裕安区",
        "name": "安徽省六安市裕安区",
        "parent_area": "安徽省六安市",
        "value": 1363
    },
    {
        "lng": "116.545438",
        "lat": "31.756288",
        "areaCode": "安徽省六安市金安区",
        "name": "安徽省六安市金安区",
        "parent_area": "安徽省六安市",
        "value": 1371
    },
    {
        "lng": "115.940441",
        "lat": "31.733462",
        "areaCode": "安徽省六安市金寨县",
        "name": "安徽省六安市金寨县",
        "parent_area": "安徽省六安市",
        "value": 1226
    },
    {
        "lng": "116.339576",
        "lat": "31.398571",
        "areaCode": "安徽省六安市霍山县",
        "name": "安徽省六安市霍山县",
        "parent_area": "安徽省六安市",
        "value": 395
    },
    {
        "lng": "116.284391",
        "lat": "32.359344",
        "areaCode": "安徽省六安市霍邱县",
        "name": "安徽省六安市霍邱县",
        "parent_area": "安徽省六安市",
        "value": 1741
    },
    {
        "lng": "117.316576",
        "lat": "31.799293",
        "areaCode": "安徽省合肥市包河区",
        "name": "安徽省合肥市包河区",
        "parent_area": "安徽省合肥市",
        "value": 1447
    },
    {
        "lng": "117.895576",
        "lat": "31.629002",
        "areaCode": "安徽省合肥市巢湖市",
        "name": "安徽省合肥市巢湖市",
        "parent_area": "安徽省合肥市",
        "value": 657
    },
    {
        "lng": "117.293577",
        "lat": "31.261328",
        "areaCode": "安徽省合肥市庐江县",
        "name": "安徽省合肥市庐江县",
        "parent_area": "安徽省合肥市",
        "value": 734
    },
    {
        "lng": "117.271459",
        "lat": "31.884887",
        "areaCode": "安徽省合肥市庐阳区",
        "name": "安徽省合肥市庐阳区",
        "parent_area": "安徽省合肥市",
        "value": 804
    },
    {
        "lng": "117.315587",
        "lat": "31.863787",
        "areaCode": "安徽省合肥市瑶海区",
        "name": "安徽省合肥市瑶海区",
        "parent_area": "安徽省合肥市",
        "value": 1323
    },
    {
        "lng": "117.164558",
        "lat": "31.712962",
        "areaCode": "安徽省合肥市肥西县",
        "name": "安徽省合肥市肥西县",
        "parent_area": "安徽省合肥市",
        "value": 879
    },
    {
        "lng": "117.475401",
        "lat": "31.89389",
        "areaCode": "安徽省合肥市肥东县",
        "name": "安徽省合肥市肥东县",
        "parent_area": "安徽省合肥市",
        "value": 791
    },
    {
        "lng": "117.17356",
        "lat": "32.483723",
        "areaCode": "安徽省合肥市长丰县",
        "name": "安徽省合肥市长丰县",
        "parent_area": "安徽省合肥市",
        "value": 684
    },
    {
        "lng": "117.266461",
        "lat": "31.857378",
        "areaCode": "安徽省合肥市蜀山区",
        "name": "安徽省合肥市蜀山区",
        "parent_area": "安徽省合肥市",
        "value": 1925
    },
    {
        "lng": "117.040538",
        "lat": "30.518232",
        "areaCode": "安徽省安庆市大观区",
        "name": "安徽省安庆市大观区",
        "parent_area": "安徽省安庆市",
        "value": 357
    },
    {
        "lng": "116.315476",
        "lat": "30.460113",
        "areaCode": "安徽省安庆市太湖县",
        "name": "安徽省安庆市太湖县",
        "parent_area": "安徽省安庆市",
        "value": 1227
    },
    {
        "lng": "116.993441",
        "lat": "30.619676",
        "areaCode": "安徽省安庆市宜秀区",
        "name": "安徽省安庆市宜秀区",
        "parent_area": "安徽省安庆市",
        "value": 475
    },
    {
        "lng": "116.135524",
        "lat": "30.159787",
        "areaCode": "安徽省安庆市宿松县",
        "name": "安徽省安庆市宿松县",
        "parent_area": "安徽省安庆市",
        "value": 2257
    },
    {
        "lng": "116.366555",
        "lat": "30.855228",
        "areaCode": "安徽省安庆市岳西县",
        "name": "安徽省安庆市岳西县",
        "parent_area": "安徽省安庆市",
        "value": 809
    },
    {
        "lng": "116.836593",
        "lat": "30.7394",
        "areaCode": "安徽省安庆市怀宁县",
        "name": "安徽省安庆市怀宁县",
        "parent_area": "安徽省安庆市",
        "value": 1879
    },
    {
        "lng": "116.70059",
        "lat": "30.129968",
        "areaCode": "安徽省安庆市望江县",
        "name": "安徽省安庆市望江县",
        "parent_area": "安徽省安庆市",
        "value": 1144
    },
    {
        "lng": "117.226437",
        "lat": "30.705671",
        "areaCode": "安徽省安庆市枞阳县",
        "name": "安徽省安庆市枞阳县",
        "parent_area": "安徽省安庆市",
        "value": 1222
    },
    {
        "lng": "116.980466",
        "lat": "31.041969",
        "areaCode": "安徽省安庆市桐城市",
        "name": "安徽省安庆市桐城市",
        "parent_area": "安徽省安庆市",
        "value": 1294
    },
    {
        "lng": "116.587611",
        "lat": "30.636756",
        "areaCode": "安徽省安庆市潜山县",
        "name": "安徽省安庆市潜山县",
        "parent_area": "安徽省安庆市",
        "value": 905
    },
    {
        "lng": "117.097514",
        "lat": "30.517523",
        "areaCode": "安徽省安庆市迎江区",
        "name": "安徽省安庆市迎江区",
        "parent_area": "安徽省安庆市",
        "value": 394
    },
    {
        "lng": "118.98961",
        "lat": "30.639352",
        "areaCode": "安徽省宣城市宁国市",
        "name": "安徽省宣城市宁国市",
        "parent_area": "安徽省宣城市",
        "value": 201
    },
    {
        "lng": "119.427476",
        "lat": "30.883667",
        "areaCode": "安徽省宣城市广德县",
        "name": "安徽省宣城市广德县",
        "parent_area": "安徽省宣城市",
        "value": 237
    },
    {
        "lng": "118.762549",
        "lat": "30.952158",
        "areaCode": "安徽省宣城市宣州区",
        "name": "安徽省宣城市宣州区",
        "parent_area": "安徽省宣城市",
        "value": 474
    },
    {
        "lng": "118.546467",
        "lat": "30.292481",
        "areaCode": "安徽省宣城市旌德县",
        "name": "安徽省宣城市旌德县",
        "parent_area": "安徽省宣城市",
        "value": 98
    },
    {
        "lng": "118.426435",
        "lat": "30.694672",
        "areaCode": "安徽省宣城市泾县",
        "name": "安徽省宣城市泾县",
        "parent_area": "安徽省宣城市",
        "value": 219
    },
    {
        "lng": "118.585444",
        "lat": "30.073292",
        "areaCode": "安徽省宣城市绩溪县",
        "name": "安徽省宣城市绩溪县",
        "parent_area": "安徽省宣城市",
        "value": 100
    },
    {
        "lng": "119.186466",
        "lat": "31.132682",
        "areaCode": "安徽省宣城市郎溪县",
        "name": "安徽省宣城市郎溪县",
        "parent_area": "安徽省宣城市",
        "value": 255
    },
    {
        "lng": "116.98348",
        "lat": "33.646131",
        "areaCode": "安徽省宿州市埇桥区",
        "name": "安徽省宿州市埇桥区",
        "parent_area": "安徽省宿州市",
        "value": 1419
    },
    {
        "lng": "117.91659",
        "lat": "33.488695",
        "areaCode": "安徽省宿州市泗县",
        "name": "安徽省宿州市泗县",
        "parent_area": "安徽省宿州市",
        "value": 450
    },
    {
        "lng": "117.564557",
        "lat": "33.547892",
        "areaCode": "安徽省宿州市灵璧县",
        "name": "安徽省宿州市灵璧县",
        "parent_area": "安徽省宿州市",
        "value": 682
    },
    {
        "lng": "116.372524",
        "lat": "34.448428",
        "areaCode": "安徽省宿州市砀山县",
        "name": "安徽省宿州市砀山县",
        "parent_area": "安徽省宿州市",
        "value": 779
    },
    {
        "lng": "116.953585",
        "lat": "34.194269",
        "areaCode": "安徽省宿州市萧县",
        "name": "安徽省宿州市萧县",
        "parent_area": "安徽省宿州市",
        "value": 991
    },
    {
        "lng": "117.034481",
        "lat": "30.116535",
        "areaCode": "安徽省池州市东至县",
        "name": "安徽省池州市东至县",
        "parent_area": "安徽省池州市",
        "value": 725
    },
    {
        "lng": "117.492394",
        "lat": "30.21653",
        "areaCode": "安徽省池州市石台县",
        "name": "安徽省池州市石台县",
        "parent_area": "安徽省池州市",
        "value": 68
    },
    {
        "lng": "117.57449",
        "lat": "30.693858",
        "areaCode": "安徽省池州市贵池区",
        "name": "安徽省池州市贵池区",
        "parent_area": "安徽省池州市",
        "value": 639
    },
    {
        "lng": "117.853431",
        "lat": "30.645634",
        "areaCode": "安徽省池州市青阳县",
        "name": "安徽省池州市青阳县",
        "parent_area": "安徽省池州市",
        "value": 236
    },
    {
        "lng": "116.834612",
        "lat": "33.997285",
        "areaCode": "安徽省淮北市杜集区",
        "name": "安徽省淮北市杜集区",
        "parent_area": "安徽省淮北市",
        "value": 173
    },
    {
        "lng": "116.772389",
        "lat": "33.921629",
        "areaCode": "安徽省淮北市濉溪县",
        "name": "安徽省淮北市濉溪县",
        "parent_area": "安徽省淮北市",
        "value": 954
    },
    {
        "lng": "116.819599",
        "lat": "33.901574",
        "areaCode": "安徽省淮北市烈山区",
        "name": "安徽省淮北市烈山区",
        "parent_area": "安徽省淮北市",
        "value": 166
    },
    {
        "lng": "116.800521",
        "lat": "33.965827",
        "areaCode": "安徽省淮北市相山区",
        "name": "安徽省淮北市相山区",
        "parent_area": "安徽省淮北市",
        "value": 493
    },
    {
        "lng": "116.840564",
        "lat": "32.637137",
        "areaCode": "安徽省淮南市八公山区",
        "name": "安徽省淮南市八公山区",
        "parent_area": "安徽省淮南市",
        "value": 115
    },
    {
        "lng": "116.717573",
        "lat": "32.715104",
        "areaCode": "安徽省淮南市凤台县",
        "name": "安徽省淮南市凤台县",
        "parent_area": "安徽省淮南市",
        "value": 482
    },
    {
        "lng": "117.059583",
        "lat": "32.63727",
        "areaCode": "安徽省淮南市大通区",
        "name": "安徽省淮南市大通区",
        "parent_area": "安徽省淮南市",
        "value": 155
    },
    {
        "lng": "116.841581",
        "lat": "32.777955",
        "areaCode": "安徽省淮南市潘集区",
        "name": "安徽省淮南市潘集区",
        "parent_area": "安徽省淮南市",
        "value": 228
    },
    {
        "lng": "117.023445",
        "lat": "32.653323",
        "areaCode": "安徽省淮南市田家庵区",
        "name": "安徽省淮南市田家庵区",
        "parent_area": "安徽省淮南市",
        "value": 621
    },
    {
        "lng": "116.865439",
        "lat": "32.606255",
        "areaCode": "安徽省淮南市谢家集区",
        "name": "安徽省淮南市谢家集区",
        "parent_area": "安徽省淮南市",
        "value": 173
    },
    {
        "lng": "118.280584",
        "lat": "32.09194",
        "areaCode": "安徽省滁州市全椒县",
        "name": "安徽省滁州市全椒县",
        "parent_area": "安徽省滁州市",
        "value": 415
    },
    {
        "lng": "117.538585",
        "lat": "32.880977",
        "areaCode": "安徽省滁州市凤阳县",
        "name": "安徽省滁州市凤阳县",
        "parent_area": "安徽省滁州市",
        "value": 556
    },
    {
        "lng": "118.423482",
        "lat": "32.206132",
        "areaCode": "安徽省滁州市南谯区",
        "name": "安徽省滁州市南谯区",
        "parent_area": "安徽省滁州市",
        "value": 279
    },
    {
        "lng": "119.011385",
        "lat": "32.67341",
        "areaCode": "安徽省滁州市天长市",
        "name": "安徽省滁州市天长市",
        "parent_area": "安徽省滁州市",
        "value": 436
    },
    {
        "lng": "117.704471",
        "lat": "32.537047",
        "areaCode": "安徽省滁州市定远县",
        "name": "安徽省滁州市定远县",
        "parent_area": "安徽省滁州市",
        "value": 634
    },
    {
        "lng": "117.99551",
        "lat": "32.783023",
        "areaCode": "安徽省滁州市明光市",
        "name": "安徽省滁州市明光市",
        "parent_area": "安徽省滁州市",
        "value": 320
    },
    {
        "lng": "118.442412",
        "lat": "32.45845",
        "areaCode": "安徽省滁州市来安县",
        "name": "安徽省滁州市来安县",
        "parent_area": "安徽省滁州市",
        "value": 260
    },
    {
        "lng": "118.312441",
        "lat": "32.300867",
        "areaCode": "安徽省滁州市琅琊区",
        "name": "安徽省滁州市琅琊区",
        "parent_area": "安徽省滁州市",
        "value": 343
    },
    {
        "lng": "118.274602",
        "lat": "31.22528",
        "areaCode": "安徽省芜湖市三山区",
        "name": "安徽省芜湖市三山区",
        "parent_area": "安徽省芜湖市",
        "value": 96
    },
    {
        "lng": "118.340418",
        "lat": "30.92026",
        "areaCode": "安徽省芜湖市南陵县",
        "name": "安徽省芜湖市南陵县",
        "parent_area": "安徽省芜湖市",
        "value": 374
    },
    {
        "lng": "118.37958",
        "lat": "31.317566",
        "areaCode": "安徽省芜湖市弋江区",
        "name": "安徽省芜湖市弋江区",
        "parent_area": "安徽省芜湖市",
        "value": 218
    },
    {
        "lng": "117.908579",
        "lat": "31.308844",
        "areaCode": "安徽省芜湖市无为县",
        "name": "安徽省芜湖市无为县",
        "parent_area": "安徽省芜湖市",
        "value": 1170
    },
    {
        "lng": "118.205424",
        "lat": "31.107959",
        "areaCode": "安徽省芜湖市繁昌县",
        "name": "安徽省芜湖市繁昌县",
        "parent_area": "安徽省芜湖市",
        "value": 211
    },
    {
        "lng": "118.582443",
        "lat": "31.141239",
        "areaCode": "安徽省芜湖市芜湖县",
        "name": "安徽省芜湖市芜湖县",
        "parent_area": "安徽省芜湖市",
        "value": 219
    },
    {
        "lng": "118.392606",
        "lat": "31.345867",
        "areaCode": "安徽省芜湖市镜湖区",
        "name": "安徽省芜湖市镜湖区",
        "parent_area": "安徽省芜湖市",
        "value": 396
    },
    {
        "lng": "118.397588",
        "lat": "31.375805",
        "areaCode": "安徽省芜湖市鸠江区",
        "name": "安徽省芜湖市鸠江区",
        "parent_area": "安徽省芜湖市",
        "value": 561
    },
    {
        "lng": "117.887561",
        "lat": "33.132709",
        "areaCode": "安徽省蚌埠市五河县",
        "name": "安徽省蚌埠市五河县",
        "parent_area": "安徽省蚌埠市",
        "value": 635
    },
    {
        "lng": "117.323548",
        "lat": "33.323274",
        "areaCode": "安徽省蚌埠市固镇县",
        "name": "安徽省蚌埠市固镇县",
        "parent_area": "安徽省蚌埠市",
        "value": 405
    },
    {
        "lng": "117.211506",
        "lat": "32.976004",
        "areaCode": "安徽省蚌埠市怀远县",
        "name": "安徽省蚌埠市怀远县",
        "parent_area": "安徽省蚌埠市",
        "value": 725
    },
    {
        "lng": "117.366383",
        "lat": "32.970547",
        "areaCode": "安徽省蚌埠市淮上区",
        "name": "安徽省蚌埠市淮上区",
        "parent_area": "安徽省蚌埠市",
        "value": 149
    },
    {
        "lng": "117.348452",
        "lat": "32.93531",
        "areaCode": "安徽省蚌埠市禹会区",
        "name": "安徽省蚌埠市禹会区",
        "parent_area": "安徽省蚌埠市",
        "value": 393
    },
    {
        "lng": "117.379441",
        "lat": "32.923379",
        "areaCode": "安徽省蚌埠市蚌山区",
        "name": "安徽省蚌埠市蚌山区",
        "parent_area": "安徽省蚌埠市",
        "value": 299
    },
    {
        "lng": "117.399513",
        "lat": "32.948644",
        "areaCode": "安徽省蚌埠市龙子湖区",
        "name": "安徽省蚌埠市龙子湖区",
        "parent_area": "安徽省蚌埠市",
        "value": 177
    },
    {
        "lng": "117.821457",
        "lat": "30.940386",
        "areaCode": "安徽省铜陵市狮子山区",
        "name": "安徽省铜陵市狮子山区",
        "parent_area": "安徽省铜陵市",
        "value": 157
    },
    {
        "lng": "117.80755",
        "lat": "30.897741",
        "areaCode": "安徽省铜陵市郊区",
        "name": "安徽省铜陵市郊区",
        "parent_area": "安徽省铜陵市",
        "value": 87
    },
    {
        "lng": "117.821457",
        "lat": "30.940386",
        "areaCode": "安徽省铜陵市铜官山区",
        "name": "安徽省铜陵市铜官山区",
        "parent_area": "安徽省铜陵市",
        "value": 239
    },
    {
        "lng": "117.798568",
        "lat": "30.958512",
        "areaCode": "安徽省铜陵市铜陵县",
        "name": "安徽省铜陵市铜陵县",
        "parent_area": "安徽省铜陵市",
        "value": 242
    },
    {
        "lng": "115.267616",
        "lat": "33.04596",
        "areaCode": "安徽省阜阳市临泉县",
        "name": "安徽省阜阳市临泉县",
        "parent_area": "安徽省阜阳市",
        "value": 2639
    },